Name,Region,Altitude,Difficulty,Bog Factor,Distance,Duration,Latitude,Longitude
A' Bhuidheanach Bheag,Cairngorms,936,4,3,19,5-6 hrs,56.9089,-4.2366
A' Chailleach (Fannichs),Ullapool,997,4,4,16,6-8 hrs,57.7374,-5.09
A' Chailleach (Monadhliath),Cairngorms,930,4,3,24.5,8-10 hrs,57.0705,-4.1576
A' Chralaig,Kintail,1120,4,3,13,6-8 hrs,57.1596,-5.1647
A' Ghlas-bheinn,Kintail,918,4,3,21,7-9 hrs,57.2348,-5.3809
A' Mhaighdean,Ullapool,967,5,4,29,12-18 hrs,57.7768,-5.2545
A' Mharconaich,Cairngorms,975,4,3,11.5,4-6 hrs,56.8835,-4.2536
Am Basteir,Isle of Skye,934,5,2,14,6-7 hrs,57.2891,-6.1769
Am Bodach,Fort William,1032,5,2,16,9-12 hrs,56.7777,-5.00034
Am Faochagach,Ullapool,954,4,5,14,5-6 hrs,57.7248,-4.8943
An Caisteal,Loch Lomond,995,4,4,14,5.5-7 hrs,56.379,-4.643
An Coileachan,Ullapool,923,4,4,24.75,9-11 hrs,57.7248,-4.8943
An Gearanach,Fort William,982,5,2,16,9-12 hrs,56.7777,-5.00034
An Riabhachan,Loch Ness,1129,4,4,29,11-14 hrs,57.3399,-4.9615
An Sgarsoch,Cairngorms,1006,4,3,42,11-12 hrs,56.9894,-3.5435
An Socach (Affric),Loch Ness,921,4,3,20,9-11 hrs,57.2322,-5.1834
An Socach (Braemar),Cairngorms,944,3,3,15.75,5-6 hrs,56.9318,-3.4168
An Socach (Mullardoch),Loch Ness,1069,4,4,29,11-14 hrs,57.3399,-4.9615
An Stùc,Perthshire,1118,4,3,16.5,7-8 hrs,56.5295,-4.15186
Aonach Air Chrith,Kintail,1021,4,2,26.75,9-11 hrs,57.156,-5.17815
Aonach Beag (Alder),Cairngorms,1116,4,3,18.5,8-9 hrs,56.8535,-4.4238
Aonach Beag (Nevis Range),Fort William,1234,4,4,16.5,7-10 hrs,56.7777,-5.00031
Aonach Meadhoin,Kintail,1001,4,2,10,6-8 hrs,57.1696,-5.2945
Aonach Mòr,Fort William,1221,4,4,16.5,7-10 hrs,56.7777,-5.00031
Beinn a' Bhùird,Cairngorms,1197,4,2,28,7-9 hrs,57.0017,-3.4554
Beinn a' Chaorainn (Cairngorms),Cairngorms,1082,4,3,29,8-10 hrs,56.99,-3.5443
Beinn a' Chaorainn (Glen Spean),Fort William,1050,4,4,16,6-8 hrs,56.8951,-4.6656
Beinn a' Chlachair,Fort William,1087,4,3,26,8-10 hrs,56.9122,-4.57556
Beinn a' Chlèibh,Argyll,916,4,3,10,5-7 hrs,56.4099,-4.85552
Beinn a' Chochuill,Argyll,980,4,2,13.5,5.5-6.5 hrs,56.4145,-5.02331
Beinn a' Chreachain,Argyll,1081,4,3,21.5,7-8 hrs,56.5556,-4.7461
Beinn a' Chròin,Loch Lomond,942,4,4,14,5.5-7 hrs,56.379,-4.643
Beinn Achaladair,Argyll,1038,4,3,21.5,7-8 hrs,56.5556,-4.7461
Beinn an Dòthaidh,Argyll,1004,4,3,14,6-8 hrs,56.5169,-4.7692
Beinn Bheoil,Cairngorms,1019,4,3,17,7-8 hrs,56.8535,-4.4238
Beinn Bhreac,Cairngorms,931,4,3,29,8-10 hrs,56.99,-3.5443
Beinn Bhrotain,Cairngorms,1157,4,3,29,9-11 hrs,57.0631,-3.897
Beinn Bhuidhe,Argyll,948,4,3,21.5,7-8 hrs,56.273,-4.9191
Beinn Chabhair,Loch Lomond,933,4,3,13,5-6.5 hrs,56.3285,-4.7218
Beinn Dearg (Blair Atholl),Perthshire,1008,4,2,29,7-9 hrs,56.7745,-3.84344
Beinn Dearg (Ullapool),Ullapool,1084,4,2,27,9-11 hrs,57.8198,-5.0625
Beinn Dòrain,Argyll,1076,4,3,14,6-8 hrs,56.5169,-4.7692
Beinn Dubhchraig,Argyll,978,4,4,17,7-8 hrs,56.425,-4.6868
Beinn Èibhinn,Cairngorms,1102,4,3,18.5,8-9 hrs,56.8535,-4.4238
Beinn Eunaich,Argyll,989,4,2,13.5,5.5-6.5 hrs,56.4145,-5.02331
Beinn Fhada,Kintail,1032,4,3,16.75,6-7 hrs,57.2348,-5.3809
Beinn Fhionnlaidh,Argyll,959,4,3,14.5,5-6 hrs,56.5904,-5.20007
Beinn Fhionnlaidh (Càrn Eige),Loch Ness,1005,4,3,28,10-13 hrs,57.2734,-4.9618
Beinn Ghlas,Perthshire,1103,3,1,11,4-6 hrs,56.511,-4.26287
Beinn Heasgarnich,Perthshire,1078,4,4,25.75,9-11 hrs,56.4991,-4.4759
Beinn Ìme,Loch Lomond,1011,4,3,13.5,6-7 hrs,56.206,-4.7507
Beinn Iutharn Mhòr,Cairngorms,1045,4,3,32,9-10 hrs,56.9851,-3.5003
Beinn Liath Mhòr,Torridon,926,4,2,15.25,7-8 hrs,57.4817,-5.32935
Beinn Liath Mhòr Fannaich,Ullapool,954,4,4,24.75,9-11 hrs,57.7248,-4.8943
Beinn Mhanach,Argyll,953,4,3,23.5,6.5-7.5 hrs,56.4607,-4.71466
Beinn Mheadhoin,Cairngorms,1182,4,3,19,8-9 hrs,57.134,-3.6712
Beinn na Lap,Fort William,937,3,3,10,3-5 hrs,56.7604,-4.6907
Beinn nan Aighenan,Fort William,960,4,3,15.75,7-9 hrs,56.5765,-5.0352
Beinn Narnain,Loch Lomond,926,4,3,13.5,6-7 hrs,56.206,-4.7507
Beinn Sgritheall,Kintail,974,4,2,10,4-6 hrs,57.1344,-5.5679
Beinn Sgulaird,Argyll,937,4,2,13,6-8 hrs,56.5556,-5.2413
Beinn Tarsuinn,Ullapool,937,5,4,29,12-18 hrs,57.7768,-5.2545
Beinn Teallach,Fort William,915,4,4,16,6-8 hrs,56.8951,-4.6656
Beinn Tulaichean,Loch Lomond,946,4,3,12.5,6-7 hrs,56.333,-4.5157
Beinn Udlamain,Cairngorms,1010,4,3,15.75,6-7 hrs,56.8515,-4.2444
Ben Alder,Cairngorms,1148,4,3,17,7-8 hrs,56.8535,-4.4238
Ben Avon,Cairngorms,1171,4,2,33.5,8-10 hrs,57.0057,-3.3381
Ben Challum,Argyll,1025,3,4,11.5,5-7 hrs,56.4168,-4.6669
Ben Chonzie,Perthshire,931,3,2,12.5,4-5 hrs,56.4209,-4.0394
Ben Cruachan,Argyll,1126,4,2,13.75,8-9 hrs,56.3937,-5.11198
Ben Hope,Sutherland,927,3,2,7.5,4-6 hrs,58.3904,-4.6328
Ben Klibreck,Sutherland,961,4,3,14.25,5-7 hrs,58.2085,-4.4993
Ben Lawers,Perthshire,1214,3,1,11,4-6 hrs,56.511,-4.26287
Ben Lomond,Loch Lomond,974,3,3,12,4.5-5.5 hrs,56.1525,-4.6431
Ben Lui,Argyll,1130,4,3,10,5-7 hrs,56.4099,-4.85552
Ben Macdui,Cairngorms,1309,4,2,29,9-11 hrs,56.99,-3.5443
Ben More,Loch Lomond,1174,4,3,12,6-8 hrs,56.4028,-4.5612
Ben More (Mull),Isle of Mull,966,3,3,9.25,5-6.5 hrs,56.4492,-6.0679
Ben More Assynt,Ullapool,998,4,3,17.25,8.5-10 hrs,58.1487,-4.9734
Ben Nevis,Fort William,1345,3,1,17,7-9 hrs,56.8108,-5.0771
Ben Oss,Argyll,1029,4,4,17,7-8 hrs,56.425,-4.6868
Ben Starav,Fort William,1078,4,3,16,8-9 hrs,56.5765,-5.0352
Ben Vane,Loch Lomond,915,4,3,11,4.5-6.5 hrs,56.2516,-4.70884
Ben Vorlich (Loch Earn),Perthshire,985,4,3,14.5,6-7 hrs,56.3813,-4.2158
Ben Vorlich (Loch Lomond),Loch Lomond,943,4,2,13.5,5-6.5 hrs,56.2516,-4.70884
Ben Wyvis,Loch Ness,1046,3,2,14,4.5-5.5 hrs,57.6658,-4.6668
Bidean nam Bian,Fort William,1150,4,1,11,7-9 hrs,56.6677,-4.9865
Bidein a' Choire Sheasgaich,Torridon,945,4,3,38,16 hrs,57.3915,-5.45534
Bidein a' Ghlas Thuill (An Teallach),Ullapool,1062,5,3,20,9-10 hrs,57.84,-5.215
Binnein Beag,Fort William,943,4,3,20,9-11 hrs,56.7168,-4.9628
Binnein Mòr,Fort William,1130,4,2,14,7-9 hrs,56.7169,-4.96308
Blà Bheinn,Isle of Skye,928,4,1,8,5-6 hrs,57.2203,-6.0429
Braeriach,Cairngorms,1296,4,2,26,8-10 hrs,57.1561,-3.7943
Bràigh Coire Chruinn-bhalgain,Perthshire,1070,4,2,22,8-10 hrs,56.7826,-3.7926
Broad Cairn,Cairngorms,998,4,2,29,9-11 hrs,56.9525,-3.1364
Bruach na Frìthe,Isle of Skye,958,4,3,13.75,5-7 hrs,57.2888,-6.1842
Bynack More,Cairngorms,1090,4,2,22.5,6.5-7.5 hrs,57.1591,-3.6816
Cairn Bannoch,Cairngorms,1012,4,2,29,9-11 hrs,56.9525,-3.1364
Cairn Gorm,Cairngorms,1245,4,2,11,5-6 hrs,57.134,-3.6712
Cairn of Claise,Cairngorms,1064,4,3,19.25,6.5-7.5 hrs,56.9033,-3.4008
Cairn Toul,Cairngorms,1291,5,3,36,13 hrs,57.1462,-3.6793
Càrn a' Chlamain,Perthshire,963,4,2,26,7-9 hrs,56.7745,-3.84325
Càrn a' Choire Bhòidheach,Cairngorms,1118,4,2,29,9-11 hrs,56.9525,-3.1364
Càrn a' Ghèoidh,Cairngorms,975,3,3,13,5-6 hrs,56.8868,-3.4149
Càrn a' Mhàim,Cairngorms,1037,4,2,22.5,6-7 hrs,56.99,-3.5443
Càrn an Fhìdhleir (Càrn Ealar),Cairngorms,994,4,3,42,11-12 hrs,56.9894,-3.5435
Càrn an Rìgh,Perthshire,1029,4,3,27,8-10 hrs,56.8141,-3.4672
Càrn an t-Sagairt Mòr,Cairngorms,1047,4,2,29,9-11 hrs,56.9525,-3.1364
Càrn an Tuirc,Cairngorms,1019,4,3,19.25,6.5-7.5 hrs,56.9033,-3.4008
Càrn Aosda,Cairngorms,917,3,3,13,5-6 hrs,56.8868,-3.4149
Càrn Bhac,Cairngorms,946,4,3,32,9-10 hrs,56.9851,-3.5003
Càrn Dearg (Corrour),Fort William,941,4,3,21.75,7-8 hrs,56.7604,-4.6907
Càrn Dearg (Loch Pattack),Cairngorms,1034,4,3,18.5,8-9 hrs,56.8535,-4.4238
Càrn Dearg (Monadhliath),Cairngorms,945,4,3,24.5,8-10 hrs,57.0705,-4.1576
Càrn Eige,Loch Ness,1183,4,3,28,10-13 hrs,57.2734,-4.9618
Càrn Ghluasaid,Kintail,957,4,3,17.5,7-8 hrs,57.1461,-5.0682
Càrn Gorm,Perthshire,1029,4,2,17.5,7-8 hrs,56.6067,-4.17465
Càrn Liath (Beinn a' Ghlò),Perthshire,975,4,2,22,8-10 hrs,56.7826,-3.7926
Càrn Liath (Creag Meagaidh),Fort William,1006,4,3,21,8-10 hrs,56.9521,-4.49592
Càrn Mairg,Perthshire,1042,4,2,17.5,7-8 hrs,56.6067,-4.17465
Càrn Mòr Dearg,Fort William,1220,5,3,17.5,10-11 hrs,56.8419,-5.0432
Càrn na Caim,Cairngorms,941,4,3,19,5-6 hrs,56.9089,-4.2366
Càrn nan Gabhar,Perthshire,1121,4,2,22,8-10 hrs,56.7826,-3.7926
Càrn nan Gobhar (Loch Mullardoch),Loch Ness,992,4,4,29,11-14 hrs,57.3399,-4.9615
Càrn nan Gobhar (Strathfarrar),Loch Ness,992,4,3,25,7-10 hrs,57.4056,-4.8591
Càrn Sgulain,Cairngorms,920,4,3,24.5,8-10 hrs,57.0705,-4.1576
Chno Dearg,Fort William,1046,4,4,13.5,6-7 hrs,56.8655,-4.7085
Ciste Dhubh,Kintail,979,4,3,12.5,5-7 hrs,57.1596,-5.1647
Cona' Mheall,Ullapool,978,4,2,27,9-11 hrs,57.8198,-5.0625
Conival,Ullapool,987,4,3,17.25,8.5-10 hrs,58.1487,-4.9734
Creag a'Mhàim,Kintail,947,4,2,26.75,9-11 hrs,57.156,-5.17815
Creag Leacach,Cairngorms,987,4,3,19.25,6.5-7.5 hrs,56.9033,-3.4008
Creag Meagaidh,Fort William,1130,4,3,21,8-10 hrs,56.9521,-4.49592
Creag Mhòr (Glen Lochay),Perthshire,1047,4,4,25.75,9-11 hrs,56.4991,-4.4759
Creag Mhòr (Meall na Aighean),Perthshire,981,4,2,17.5,7-8 hrs,56.6067,-4.17465
Creag nan Dàmh,Kintail,918,4,2,26.75,9-11 hrs,57.156,-5.17815
Creag Pitridh,Fort William,924,4,3,26,8-10 hrs,56.9122,-4.57556
Creise,Fort William,1100,4,3,10.5,5-7 hrs,56.6324,-4.8279
Cruach Àrdrain,Loch Lomond,1046,4,3,12.5,6-7 hrs,56.333,-4.5157
Derry Cairngorm,Cairngorms,1155,4,2,29,9-11 hrs,56.99,-3.5443
Driesh,Angus,947,3,3,14.5,4.5-5.5 hrs,56.8704,-3.17584
Druim Shionnach,Kintail,987,4,2,26.75,9-11 hrs,57.156,-5.17815
Eididh nan Clach Geala,Ullapool,927,4,2,27,9-11 hrs,57.8198,-5.0625
Fionn Bheinn,Torridon,933,3,4,12,5-6 hrs,57.5793,-5.0734
Gairich,Fort William,919,4,3,15.5,5-7 hrs,57.0719,-5.1877
Garbh Chioch Mhòr,Fort William,1013,4,4,26,10-12 hrs,56.9719,-5.3123
Geal chàrn (Laggan),Fort William,1049,4,3,26,8-10 hrs,56.9122,-4.57556
Geal Chàrn (Monadhliath),Cairngorms,926,3,4,12.5,5-6 hrs,57.0199,-4.4359
Geal-chàrn (Alder),Cairngorms,1132,4,3,18.5,8-9 hrs,56.8535,-4.4238
Geal-chàrn (Drumochter),Cairngorms,917,4,3,11.5,4-6 hrs,56.8835,-4.2536
Glas Bheinn Mhòr,Fort William,997,4,3,16,8-9 hrs,56.5765,-5.0352
Glas Maol,Cairngorms,1068,4,3,19.25,6.5-7.5 hrs,56.9033,-3.4008
Glas Tulaichean,Perthshire,1051,4,3,27,8-10 hrs,56.8141,-3.4672
Gleouraich,Fort William,1035,4,3,12,5-7 hrs,57.0757,-5.2532
Gulvain,Fort William,987,4,3,21,7-9 hrs,56.8597,-5.349
Inaccessible Pinnacle,Isle of Skye,986,5,2,8,6-8 hrs,57.212,-6.2884
Ladhar Bheinn,Fort William,1020,5,2,22.5,9-12 hrs,57.0386,-5.6854
Lochnagar,Cairngorms,1156,4,2,29,9-11 hrs,56.9525,-3.1364
Luinne Bheinn,Fort William,939,5,3,27,11-13 hrs,57.0386,-5.6854
Lurg Mhòr,Torridon,986,4,3,38,16 hrs,57.3915,-5.45534
Màm Sodhail,Loch Ness,1181,4,3,28,10-13 hrs,57.2734,-4.9618
Maoile Lunndaidh,Torridon,1007,4,4,26,8-11 hrs,57.4914,-5.2722
Maol Chean-dearg,Torridon,933,4,3,14,5-7 hrs,57.4498,-5.40744
Maol chinn-dearg,Kintail,981,4,2,26.75,9-11 hrs,57.156,-5.17815
Mayar,Angus,928,3,3,14.5,4.5-5.5 hrs,56.8704,-3.17584
Meall a' Bhùiridh,Fort William,1108,4,3,10.5,5-7 hrs,56.6324,-4.8279
Meall a' Choire Lèith,Perthshire,926,4,4,9.5,5-6 hrs,56.5453,-4.28936
Meall a' Chrasgaidh,Ullapool,934,4,4,18,7-8 hrs,57.7373,-5.09
Meall Buidhe (Glen Lyon),Perthshire,932,3,3,8.5,2.5-3.5 hrs,56.5858,-4.42486
Meall Buidhe (Knoydart),Fort William,946,5,3,27,11-13 hrs,57.0386,-5.6854
Meall Chuaich,Cairngorms,951,3,2,14,4-5 hrs,56.9512,-4.2148
Meall Corranaich,Perthshire,1069,4,4,9.5,5-6 hrs,56.5453,-4.28936
Meall Dearg (Aonach Eagach),Fort William,953,5,3,9.5,8-9 hrs,56.6666,-4.9824
Meall Garbh (Ben Lawers),Perthshire,1118,4,3,16.5,7-8 hrs,56.5295,-4.15186
Meall Garbh (Càrn Mairg),Perthshire,968,4,2,17.5,7-8 hrs,56.6067,-4.17465
Meall Ghaordaidh,Perthshire,1039,3,3,9.5,4-6 hrs,56.4961,-4.39556
Meall Glas,Loch Lomond,959,4,4,15.5,7-9 hrs,56.4148,-4.5172
Meall Gorm,Ullapool,949,4,4,24.75,9-11 hrs,57.7248,-4.8943
Meall Greigh,Perthshire,1001,4,3,16.5,7-8 hrs,56.5295,-4.15186
Meall na Teanga,Fort William,918,4,2,19,7-9 hrs,57.0213,-4.83917
Meall nan Ceapraichean,Ullapool,977,4,2,27,9-11 hrs,57.8198,-5.0625
Meall nan Eun,Fort William,928,4,4,18,7-9 hrs,56.5765,-5.0352
Meall nan Tarmachan,Perthshire,1044,4,3,13,5-7 hrs,56.5108,-4.2628
Monadh Mòr,Cairngorms,1113,4,3,29,9-11 hrs,57.0631,-3.897
Moruisg,Torridon,928,4,4,12,6-7 hrs,57.5176,-5.20773
Mount Keen,Angus,939,3,2,17.5,5-7 hrs,56.9115,-2.91052
Mullach an Rathain (Liathach),Torridon,1023,5,2,11.5,8-10 hrs,57.5527,-5.4516
Mullach Clach a' Bhlàir,Cairngorms,1019,4,2,22.5,7-8 hrs,57.0631,-3.897
Mullach Coire Mhic Fhearchair,Ullapool,1019,5,4,29,12-18 hrs,57.7768,-5.2545
Mullach Fraoch-choire,Kintail,1102,4,3,13,6-8 hrs,57.1596,-5.1647
Mullach na Dheiragain,Loch Ness,982,4,3,20,9-11 hrs,57.2322,-5.1834
Mullach nan Coirean,Fort William,939,4,3,13,6-8 hrs,56.7695,-5.0372
Na Gruagaichean,Fort William,1056,4,2,14,7-9 hrs,56.7169,-4.96308
Ruadh Stac Mòr,Ullapool,918,5,4,29,12-18 hrs,57.7768,-5.2545
Ruadh-stac Mòr (Beinn Eighe),Torridon,1010,4,2,18,7-9 hrs,57.5556,-5.4137
Sàil Chaorainn,Kintail,1002,4,3,17.5,7-8 hrs,57.1461,-5.0682
Sàileag,Kintail,956,4,2,10,6-8 hrs,57.1696,-5.2945
Schiehallion,Perthshire,1083,3,1,10,4-6 hrs,56.6758,-4.03603
Seana Bhràigh,Ullapool,926,4,3,27,9-10 hrs,57.8203,-5.0626
Sgàirneach Mhòr,Cairngorms,991,4,3,15.75,6-7 hrs,56.8515,-4.2444
Sgiath Chùil,Loch Lomond,921,4,4,15.5,7-9 hrs,56.4148,-4.5172
Sgòr an Lochain Uaine,Cairngorms,1258,5,3,36,13 hrs,57.1462,-3.6793
Sgòr Gaibhre,Fort William,955,4,3,21.75,7-8 hrs,56.7604,-4.6907
Sgòr Gaoith,Cairngorms,1118,4,2,14,6-7 hrs,57.0879,-3.8951
Sgòr na h-Ulaidh,Fort William,994,4,3,16,7-9 hrs,56.6611,-5.06878
Sgòrr Dhearg (Beinn a' Bheithir),Fort William,1024,4,3,15.5,7-9 hrs,56.6783,-5.12981
Sgòrr Dhònuill (Beinn a' Bheithir),Fort William,1001,4,3,15.5,7-9 hrs,56.6783,-5.12981
Sgòrr nam Fiannaidh (Aonach Eagach),Fort William,967,5,3,9.5,8-9 hrs,56.6666,-4.9824
Sgòrr Ruadh,Torridon,962,4,2,16,6.5-7 hrs,57.4818,-5.3292
Sgùrr a' Bhealaich Dheirg,Kintail,1036,4,2,10,6-8 hrs,57.1696,-5.2945
Sgùrr a' Chaorachain,Torridon,1053,4,3,20.5,7-8 hrs,57.4913,-5.27236
Sgùrr a' Choire Ghlais,Loch Ness,1083,4,3,25,7-10 hrs,57.4056,-4.8591
Sgùrr a' Ghreadaidh,Isle of Skye,973,5,3,9.5,6-8 hrs,57.2198,-6.2929
Sgùrr a' Mhadaidh,Isle of Skye,918,5,3,9.5,6-8 hrs,57.2198,-6.2929
Sgùrr a' Mhàim,Fort William,1099,5,2,16,9-12 hrs,56.7777,-5.00034
Sgùrr a' Mhaoraich,Fort William,1027,4,3,14,5-7 hrs,57.0848,-5.2781
Sgùrr Alasdair,Isle of Skye,992,5,2,9.5,5-6 hrs,57.203,-6.2914
Sgùrr an Doire Leathain,Kintail,1010,4,2,26.75,9-11 hrs,57.156,-5.17815
Sgùrr an Lochain,Kintail,1004,4,2,26.75,9-11 hrs,57.156,-5.17815
Sgùrr Bàn,Ullapool,989,5,4,29,12-18 hrs,57.7768,-5.2545
Sgùrr Breac,Ullapool,999,4,4,16,6-8 hrs,57.7374,-5.09
Sgùrr Chòinnich,Torridon,999,4,3,20.5,7-8 hrs,57.4913,-5.27236
Sgùrr Chòinnich Mòr,Fort William,1094,4,3,21.5,9-10 hrs,56.8727,-4.8682
Sgùrr Dubh Mòr,Isle of Skye,944,5,2,15,7-11 hrs,57.203,-6.2914
Sgùrr Èilde Mòr,Fort William,1010,4,3,20,9-11 hrs,56.7168,-4.9628
Sgùrr Fhuar-thuill,Loch Ness,1049,4,3,25,7-10 hrs,57.4056,-4.8591
Sgùrr Fhuaran,Kintail,1067,4,2,15,8-10 hrs,57.1694,-5.2945
Sgùrr Fiona (An Teallach),Ullapool,1060,5,3,20,9-10 hrs,57.84,-5.215
Sgùrr Mhic Chòinnich,Isle of Skye,948,5,1,11,5-6 hrs,57.203,-6.2914
Sgùrr Mòr,Ullapool,1110,4,4,24.75,9-11 hrs,57.7248,-4.8943
Sgùrr Mòr (Beinn Alligin),Torridon,986,5,3,10.5,7-8 hrs,57.5589,-5.56391
Sgùrr Mòr (Loch Quoich),Fort William,1003,4,4,24,9-11 hrs,56.9719,-5.3123
Sgùrr na Banachdich,Isle of Skye,965,4,2,7.5,5-7 hrs,57.2198,-6.2929
Sgùrr na Càrnach,Kintail,1002,4,2,15,8-10 hrs,57.1694,-5.2945
Sgùrr na Cìche,Fort William,1040,4,4,26,10-12 hrs,56.9719,-5.3123
Sgùrr na Ciste Duibhe,Kintail,1027,4,2,15,8-10 hrs,57.1694,-5.2945
Sgùrr na Lapaich,Loch Ness,1150,4,4,29,11-14 hrs,57.3399,-4.9615
Sgùrr na Ruaidhe,Loch Ness,993,4,3,25,7-10 hrs,57.4056,-4.8591
Sgùrr na Sgìne,Kintail,945,5,2,13,7-9 hrs,57.1762,-5.36459
Sgùrr nan Ceathreamhnan,Loch Ness,1151,4,3,20,9-11 hrs,57.2322,-5.1834
Sgùrr nan Clach Geala,Ullapool,1093,4,4,18,7-8 hrs,57.7373,-5.09
Sgùrr nan Coireachan (Glen Dessary),Fort William,953,4,4,26,10-12 hrs,56.9719,-5.3123
Sgùrr nan Coireachan (Glenfinnan),Fort William,956,4,3,23.5,9-12 hrs,56.8711,-5.4364
Sgùrr nan Conbhairean,Kintail,1109,4,3,17.5,7-8 hrs,57.1461,-5.0682
Sgùrr nan Each,Ullapool,923,4,4,18,7-8 hrs,57.7373,-5.09
Sgùrr nan Eag,Isle of Skye,924,5,2,15,7-11 hrs,57.203,-6.2914
Sgùrr nan Gillean,Isle of Skye,964,5,2,12,5-7 hrs,57.2894,-6.176
Sgùrr Thuilm,Fort William,963,4,3,23.5,9-12 hrs,56.8711,-5.4364
Slioch,Torridon,981,4,2,19,8-9 hrs,57.6085,-5.2866
Spidean a' Choire Lèith (Liathach),Torridon,1055,5,2,11.5,8-10 hrs,57.5527,-5.4516
Spidean Coire nan Clach (Beinn Eighe),Torridon,993,4,2,18,7-9 hrs,57.5556,-5.4137
Spidean Mialach,Fort William,996,4,3,12,5-7 hrs,57.0757,-5.2532
Sròn a' Choire Ghairbh,Fort William,937,4,2,19,7-9 hrs,57.0213,-4.83917
Stob a' Choire Mheadhoin,Fort William,1106,4,3,16.5,7-8 hrs,56.8654,-4.7084
Stob a' Choire Odhair,Argyll,945,4,3,16,8-9 hrs,56.5372,-4.81407
Stob Bàn (Grey Corries),Fort William,977,4,3,18,6-7 hrs,56.8683,-4.8637
Stob Bàn (Mamores),Fort William,999,4,3,13,6-8 hrs,56.7695,-5.0372
Stob Binnein,Loch Lomond,1165,4,3,12,6-8 hrs,56.4028,-4.5612
Stob Choire Claurigh,Fort William,1177,4,3,21.5,9-10 hrs,56.8727,-4.8682
Stob Coir an Albannaich,Fort William,1044,4,4,18,7-9 hrs,56.5765,-5.0352
Stob Coire a' Chàirn,Fort William,981,5,2,16,9-12 hrs,56.7777,-5.00034
Stob Coire an Laoigh,Fort William,1116,4,3,21.5,9-10 hrs,56.8727,-4.8682
Stob Coire Easain,Fort William,1115,4,3,16.5,7-8 hrs,56.8654,-4.7084
Stob Coire Raineach (Buachaille Etive Beag),Fort William,925,3,2,8,5-6 hrs,56.6627,-4.9582
Stob Coire Sgreamhach,Fort William,1072,4,1,11,7-9 hrs,56.6677,-4.9865
Stob Coire Sgriodain,Fort William,979,4,4,13.5,6-7 hrs,56.8655,-4.7085
Stob Daimh,Argyll,998,4,2,13.75,8-9 hrs,56.3937,-5.11198
Stob Dearg (Buachaille Etive Mòr),Fort William,1021,4,2,13,7-9 hrs,56.6644,-4.9045
Stob Dubh (Buachaille Etive Beag),Fort William,956,3,2,8,5-6 hrs,56.6627,-4.9582
Stob Ghabhar,Argyll,1090,4,3,16,8-9 hrs,56.5372,-4.81407
Stob na Bròige (Buachaille Etive Mòr),Fort William,956,4,2,13,7-9 hrs,56.6644,-4.9045
Stob Poite Coire Àrdair,Fort William,1054,4,3,21,8-10 hrs,56.9521,-4.49592
Stùc a' Chròin,Perthshire,975,4,3,14.5,6-7 hrs,56.3813,-4.2158
Stùcd an Lochain,Perthshire,960,4,3,8.5,3.5-4.5 hrs,56.5856,-4.42609
The Cairnwell,Cairngorms,933,3,3,13,5-6 hrs,56.8868,-3.4149
The Devil's Point,Cairngorms,1004,5,3,36,13 hrs,57.1462,-3.6793
The Saddle,Kintail,1010,5,2,13,7-9 hrs,57.1762,-5.36459
Toll Creagach,Loch Ness,1054,4,3,16.5,6-8 hrs,57.2734,-4.9618
Tolmount,Cairngorms,958,4,3,26.5,8-10 hrs,56.9774,-3.39
Tom a' Chòinich,Loch Ness,1112,4,3,16.5,6-8 hrs,57.2734,-4.9618
Tom Buidhe,Cairngorms,957,4,3,26.5,8-10 hrs,56.9774,-3.39
Tom na Gruagaich (Beinn Alligin),Torridon,922,5,3,10.5,7-8 hrs,57.5589,-5.56391