[
  {
    "Name": "A' Bhuidheanach Bheag",
    "Region": "Cairngorms",
    "Altitude": 936,
    "Difficulty": 4,
    "Bog Factor": 3,
    "Distance": 19,
    "Duration": "5-6 hrs",
    "Latitude": 56.9089,
    "Longitude": -4.2366
  },
  {
    "Name": "A' Chailleach (Fannichs)",
    "Region": "Ullapool",
    "Altitude": 997,
    "Difficulty": 4,
    "Bog Factor": 4,
    "Distance": 16,
    "Duration": "6-8 hrs",
    "Latitude": 57.7374,
    "Longitude": -5.09
  },
  {
    "Name": "A' Chailleach (Monadhliath)",
    "Region": "Cairngorms",
    "Altitude": 930,
    "Difficulty": 4,
    "Bog Factor": 3,
    "Distance": 24.5,
    "Duration": "8-10 hrs",
    "Latitude": 57.0705,
    "Longitude": -4.1576
  },
  {
    "Name": "A' Chralaig",
    "Region": "Kintail",
    "Altitude": 1120,
    "Difficulty": 4,
    "Bog Factor": 3,
    "Distance": 13,
    "Duration": "6-8 hrs",
    "Latitude": 57.1596,
    "Longitude": -5.1647
  },
  {
    "Name": "A' Ghlas-bheinn",
    "Region": "Kintail",
    "Altitude": 918,
    "Difficulty": 4,
    "Bog Factor": 3,
    "Distance": 21,
    "Duration": "7-9 hrs",
    "Latitude": 57.2348,
    "Longitude": -5.3809
  },
  {
    "Name": "A' Mhaighdean",
    "Region": "Ullapool",
    "Altitude": 967,
    "Difficulty": 5,
    "Bog Factor": 4,
    "Distance": 29,
    "Duration": "12-18 hrs",
    "Latitude": 57.7768,
    "Longitude": -5.2545
  },
  {
    "Name": "A' Mharconaich",
    "Region": "Cairngorms",
    "Altitude": 975,
    "Difficulty": 4,
    "Bog Factor": 3,
    "Distance": 11.5,
    "Duration": "4-6 hrs",
    "Latitude": 56.8835,
    "Longitude": -4.2536
  },
  {
    "Name": "Am Basteir",
    "Region": "Isle of Skye",
    "Altitude": 934,
    "Difficulty": 5,
    "Bog Factor": 2,
    "Distance": 14,
    "Duration": "6-7 hrs",
    "Latitude": 57.2891,
    "Longitude": -6.1769
  },
  {
    "Name": "Am Bodach",
    "Region": "Fort William",
    "Altitude": 1032,
    "Difficulty": 5,
    "Bog Factor": 2,
    "Distance": 16,
    "Duration": "9-12 hrs",
    "Latitude": 56.7777,
    "Longitude": -5.00034
  },
  {
    "Name": "Am Faochagach",
    "Region": "Ullapool",
    "Altitude": 954,
    "Difficulty": 4,
    "Bog Factor": 5,
    "Distance": 14,
    "Duration": "5-6 hrs",
    "Latitude": 57.7248,
    "Longitude": -4.8943
  },
  {
    "Name": "An Caisteal",
    "Region": "Loch Lomond",
    "Altitude": 995,
    "Difficulty": 4,
    "Bog Factor": 4,
    "Distance": 14,
    "Duration": "5.5-7 hrs",
    "Latitude": 56.379,
    "Longitude": -4.643
  },
  {
    "Name": "An Coileachan",
    "Region": "Ullapool",
    "Altitude": 923,
    "Difficulty": 4,
    "Bog Factor": 4,
    "Distance": 24.75,
    "Duration": "9-11 hrs",
    "Latitude": 57.7248,
    "Longitude": -4.8943
  },
  {
    "Name": "An Gearanach",
    "Region": "Fort William",
    "Altitude": 982,
    "Difficulty": 5,
    "Bog Factor": 2,
    "Distance": 16,
    "Duration": "9-12 hrs",
    "Latitude": 56.7777,
    "Longitude": -5.00034
  },
  {
    "Name": "An Riabhachan",
    "Region": "Loch Ness",
    "Altitude": 1129,
    "Difficulty": 4,
    "Bog Factor": 4,
    "Distance": 29,
    "Duration": "11-14 hrs",
    "Latitude": 57.3399,
    "Longitude": -4.9615
  },
  {
    "Name": "An Sgarsoch",
    "Region": "Cairngorms",
    "Altitude": 1006,
    "Difficulty": 4,
    "Bog Factor": 3,
    "Distance": 42,
    "Duration": "11-12 hrs",
    "Latitude": 56.9894,
    "Longitude": -3.5435
  },
  {
    "Name": "An Socach (Affric)",
    "Region": "Loch Ness",
    "Altitude": 921,
    "Difficulty": 4,
    "Bog Factor": 3,
    "Distance": 20,
    "Duration": "9-11 hrs",
    "Latitude": 57.2322,
    "Longitude": -5.1834
  },
  {
    "Name": "An Socach (Braemar)",
    "Region": "Cairngorms",
    "Altitude": 944,
    "Difficulty": 3,
    "Bog Factor": 3,
    "Distance": 15.75,
    "Duration": "5-6 hrs",
    "Latitude": 56.9318,
    "Longitude": -3.4168
  },
  {
    "Name": "An Socach (Mullardoch)",
    "Region": "Loch Ness",
    "Altitude": 1069,
    "Difficulty": 4,
    "Bog Factor": 4,
    "Distance": 29,
    "Duration": "11-14 hrs",
    "Latitude": 57.3399,
    "Longitude": -4.9615
  },
  {
    "Name": "An Stùc",
    "Region": "Perthshire",
    "Altitude": 1118,
    "Difficulty": 4,
    "Bog Factor": 3,
    "Distance": 16.5,
    "Duration": "7-8 hrs",
    "Latitude": 56.5295,
    "Longitude": -4.15186
  },
  {
    "Name": "Aonach Air Chrith",
    "Region": "Kintail",
    "Altitude": 1021,
    "Difficulty": 4,
    "Bog Factor": 2,
    "Distance": 26.75,
    "Duration": "9-11 hrs",
    "Latitude": 57.156,
    "Longitude": -5.17815
  },
  {
    "Name": "Aonach Beag (Alder)",
    "Region": "Cairngorms",
    "Altitude": 1116,
    "Difficulty": 4,
    "Bog Factor": 3,
    "Distance": 18.5,
    "Duration": "8-9 hrs",
    "Latitude": 56.8535,
    "Longitude": -4.4238
  },
  {
    "Name": "Aonach Beag (Nevis Range)",
    "Region": "Fort William",
    "Altitude": 1234,
    "Difficulty": 4,
    "Bog Factor": 4,
    "Distance": 16.5,
    "Duration": "7-10 hrs",
    "Latitude": 56.7777,
    "Longitude": -5.00031
  },
  {
    "Name": "Aonach Meadhoin",
    "Region": "Kintail",
    "Altitude": 1001,
    "Difficulty": 4,
    "Bog Factor": 2,
    "Distance": 10,
    "Duration": "6-8 hrs",
    "Latitude": 57.1696,
    "Longitude": -5.2945
  },
  {
    "Name": "Aonach Mòr",
    "Region": "Fort William",
    "Altitude": 1221,
    "Difficulty": 4,
    "Bog Factor": 4,
    "Distance": 16.5,
    "Duration": "7-10 hrs",
    "Latitude": 56.7777,
    "Longitude": -5.00031
  },
  {
    "Name": "Beinn a' Bhùird",
    "Region": "Cairngorms",
    "Altitude": 1197,
    "Difficulty": 4,
    "Bog Factor": 2,
    "Distance": 28,
    "Duration": "7-9 hrs",
    "Latitude": 57.0017,
    "Longitude": -3.4554
  },
  {
    "Name": "Beinn a' Chaorainn (Cairngorms)",
    "Region": "Cairngorms",
    "Altitude": 1082,
    "Difficulty": 4,
    "Bog Factor": 3,
    "Distance": 29,
    "Duration": "8-10 hrs",
    "Latitude": 56.99,
    "Longitude": -3.5443
  },
  {
    "Name": "Beinn a' Chaorainn (Glen Spean)",
    "Region": "Fort William",
    "Altitude": 1050,
    "Difficulty": 4,
    "Bog Factor": 4,
    "Distance": 16,
    "Duration": "6-8 hrs",
    "Latitude": 56.8951,
    "Longitude": -4.6656
  },
  {
    "Name": "Beinn a' Chlachair",
    "Region": "Fort William",
    "Altitude": 1087,
    "Difficulty": 4,
    "Bog Factor": 3,
    "Distance": 26,
    "Duration": "8-10 hrs",
    "Latitude": 56.9122,
    "Longitude": -4.57556
  },
  {
    "Name": "Beinn a' Chlèibh",
    "Region": "Argyll",
    "Altitude": 916,
    "Difficulty": 4,
    "Bog Factor": 3,
    "Distance": 10,
    "Duration": "5-7 hrs",
    "Latitude": 56.4099,
    "Longitude": -4.85552
  },
  {
    "Name": "Beinn a' Chochuill",
    "Region": "Argyll",
    "Altitude": 980,
    "Difficulty": 4,
    "Bog Factor": 2,
    "Distance": 13.5,
    "Duration": "5.5-6.5 hrs",
    "Latitude": 56.4145,
    "Longitude": -5.02331
  },
  {
    "Name": "Beinn a' Chreachain",
    "Region": "Argyll",
    "Altitude": 1081,
    "Difficulty": 4,
    "Bog Factor": 3,
    "Distance": 21.5,
    "Duration": "7-8 hrs",
    "Latitude": 56.5556,
    "Longitude": -4.7461
  },
  {
    "Name": "Beinn a' Chròin",
    "Region": "Loch Lomond",
    "Altitude": 942,
    "Difficulty": 4,
    "Bog Factor": 4,
    "Distance": 14,
    "Duration": "5.5-7 hrs",
    "Latitude": 56.379,
    "Longitude": -4.643
  },
  {
    "Name": "Beinn Achaladair",
    "Region": "Argyll",
    "Altitude": 1038,
    "Difficulty": 4,
    "Bog Factor": 3,
    "Distance": 21.5,
    "Duration": "7-8 hrs",
    "Latitude": 56.5556,
    "Longitude": -4.7461
  },
  {
    "Name": "Beinn an Dòthaidh",
    "Region": "Argyll",
    "Altitude": 1004,
    "Difficulty": 4,
    "Bog Factor": 3,
    "Distance": 14,
    "Duration": "6-8 hrs",
    "Latitude": 56.5169,
    "Longitude": -4.7692
  },
  {
    "Name": "Beinn Bheoil",
    "Region": "Cairngorms",
    "Altitude": 1019,
    "Difficulty": 4,
    "Bog Factor": 3,
    "Distance": 17,
    "Duration": "7-8 hrs",
    "Latitude": 56.8535,
    "Longitude": -4.4238
  },
  {
    "Name": "Beinn Bhreac",
    "Region": "Cairngorms",
    "Altitude": 931,
    "Difficulty": 4,
    "Bog Factor": 3,
    "Distance": 29,
    "Duration": "8-10 hrs",
    "Latitude": 56.99,
    "Longitude": -3.5443
  },
  {
    "Name": "Beinn Bhrotain",
    "Region": "Cairngorms",
    "Altitude": 1157,
    "Difficulty": 4,
    "Bog Factor": 3,
    "Distance": 29,
    "Duration": "9-11 hrs",
    "Latitude": 57.0631,
    "Longitude": -3.897
  },
  {
    "Name": "Beinn Bhuidhe",
    "Region": "Argyll",
    "Altitude": 948,
    "Difficulty": 4,
    "Bog Factor": 3,
    "Distance": 21.5,
    "Duration": "7-8 hrs",
    "Latitude": 56.273,
    "Longitude": -4.9191
  },
  {
    "Name": "Beinn Chabhair",
    "Region": "Loch Lomond",
    "Altitude": 933,
    "Difficulty": 4,
    "Bog Factor": 3,
    "Distance": 13,
    "Duration": "5-6.5 hrs",
    "Latitude": 56.3285,
    "Longitude": -4.7218
  },
  {
    "Name": "Beinn Dearg (Blair Atholl)",
    "Region": "Perthshire",
    "Altitude": 1008,
    "Difficulty": 4,
    "Bog Factor": 2,
    "Distance": 29,
    "Duration": "7-9 hrs",
    "Latitude": 56.7745,
    "Longitude": -3.84344
  },
  {
    "Name": "Beinn Dearg (Ullapool)",
    "Region": "Ullapool",
    "Altitude": 1084,
    "Difficulty": 4,
    "Bog Factor": 2,
    "Distance": 27,
    "Duration": "9-11 hrs",
    "Latitude": 57.8198,
    "Longitude": -5.0625
  },
  {
    "Name": "Beinn Dòrain",
    "Region": "Argyll",
    "Altitude": 1076,
    "Difficulty": 4,
    "Bog Factor": 3,
    "Distance": 14,
    "Duration": "6-8 hrs",
    "Latitude": 56.5169,
    "Longitude": -4.7692
  },
  {
    "Name": "Beinn Dubhchraig",
    "Region": "Argyll",
    "Altitude": 978,
    "Difficulty": 4,
    "Bog Factor": 4,
    "Distance": 17,
    "Duration": "7-8 hrs",
    "Latitude": 56.425,
    "Longitude": -4.6868
  },
  {
    "Name": "Beinn Èibhinn",
    "Region": "Cairngorms",
    "Altitude": 1102,
    "Difficulty": 4,
    "Bog Factor": 3,
    "Distance": 18.5,
    "Duration": "8-9 hrs",
    "Latitude": 56.8535,
    "Longitude": -4.4238
  },
  {
    "Name": "Beinn Eunaich",
    "Region": "Argyll",
    "Altitude": 989,
    "Difficulty": 4,
    "Bog Factor": 2,
    "Distance": 13.5,
    "Duration": "5.5-6.5 hrs",
    "Latitude": 56.4145,
    "Longitude": -5.02331
  },
  {
    "Name": "Beinn Fhada",
    "Region": "Kintail",
    "Altitude": 1032,
    "Difficulty": 4,
    "Bog Factor": 3,
    "Distance": 16.75,
    "Duration": "6-7 hrs",
    "Latitude": 57.2348,
    "Longitude": -5.3809
  },
  {
    "Name": "Beinn Fhionnlaidh",
    "Region": "Argyll",
    "Altitude": 959,
    "Difficulty": 4,
    "Bog Factor": 3,
    "Distance": 14.5,
    "Duration": "5-6 hrs",
    "Latitude": 56.5904,
    "Longitude": -5.20007
  },
  {
    "Name": "Beinn Fhionnlaidh (Càrn Eige)",
    "Region": "Loch Ness",
    "Altitude": 1005,
    "Difficulty": 4,
    "Bog Factor": 3,
    "Distance": 28,
    "Duration": "10-13 hrs",
    "Latitude": 57.2734,
    "Longitude": -4.9618
  },
  {
    "Name": "Beinn Ghlas",
    "Region": "Perthshire",
    "Altitude": 1103,
    "Difficulty": 3,
    "Bog Factor": 1,
    "Distance": 11,
    "Duration": "4-6 hrs",
    "Latitude": 56.511,
    "Longitude": -4.26287
  },
  {
    "Name": "Beinn Heasgarnich",
    "Region": "Perthshire",
    "Altitude": 1078,
    "Difficulty": 4,
    "Bog Factor": 4,
    "Distance": 25.75,
    "Duration": "9-11 hrs",
    "Latitude": 56.4991,
    "Longitude": -4.4759
  },
  {
    "Name": "Beinn Ìme",
    "Region": "Loch Lomond",
    "Altitude": 1011,
    "Difficulty": 4,
    "Bog Factor": 3,
    "Distance": 13.5,
    "Duration": "6-7 hrs",
    "Latitude": 56.206,
    "Longitude": -4.7507
  },
  {
    "Name": "Beinn Iutharn Mhòr",
    "Region": "Cairngorms",
    "Altitude": 1045,
    "Difficulty": 4,
    "Bog Factor": 3,
    "Distance": 32,
    "Duration": "9-10 hrs",
    "Latitude": 56.9851,
    "Longitude": -3.5003
  },
  {
    "Name": "Beinn Liath Mhòr",
    "Region": "Torridon",
    "Altitude": 926,
    "Difficulty": 4,
    "Bog Factor": 2,
    "Distance": 15.25,
    "Duration": "7-8 hrs",
    "Latitude": 57.4817,
    "Longitude": -5.32935
  },
  {
    "Name": "Beinn Liath Mhòr Fannaich",
    "Region": "Ullapool",
    "Altitude": 954,
    "Difficulty": 4,
    "Bog Factor": 4,
    "Distance": 24.75,
    "Duration": "9-11 hrs",
    "Latitude": 57.7248,
    "Longitude": -4.8943
  },
  {
    "Name": "Beinn Mhanach",
    "Region": "Argyll",
    "Altitude": 953,
    "Difficulty": 4,
    "Bog Factor": 3,
    "Distance": 23.5,
    "Duration": "6.5-7.5 hrs",
    "Latitude": 56.4607,
    "Longitude": -4.71466
  },
  {
    "Name": "Beinn Mheadhoin",
    "Region": "Cairngorms",
    "Altitude": 1182,
    "Difficulty": 4,
    "Bog Factor": 3,
    "Distance": 19,
    "Duration": "8-9 hrs",
    "Latitude": 57.134,
    "Longitude": -3.6712
  },
  {
    "Name": "Beinn na Lap",
    "Region": "Fort William",
    "Altitude": 937,
    "Difficulty": 3,
    "Bog Factor": 3,
    "Distance": 10,
    "Duration": "3-5 hrs",
    "Latitude": 56.7604,
    "Longitude": -4.6907
  },
  {
    "Name": "Beinn nan Aighenan",
    "Region": "Fort William",
    "Altitude": 960,
    "Difficulty": 4,
    "Bog Factor": 3,
    "Distance": 15.75,
    "Duration": "7-9 hrs",
    "Latitude": 56.5765,
    "Longitude": -5.0352
  },
  {
    "Name": "Beinn Narnain",
    "Region": "Loch Lomond",
    "Altitude": 926,
    "Difficulty": 4,
    "Bog Factor": 3,
    "Distance": 13.5,
    "Duration": "6-7 hrs",
    "Latitude": 56.206,
    "Longitude": -4.7507
  },
  {
    "Name": "Beinn Sgritheall",
    "Region": "Kintail",
    "Altitude": 974,
    "Difficulty": 4,
    "Bog Factor": 2,
    "Distance": 10,
    "Duration": "4-6 hrs",
    "Latitude": 57.1344,
    "Longitude": -5.5679
  },
  {
    "Name": "Beinn Sgulaird",
    "Region": "Argyll",
    "Altitude": 937,
    "Difficulty": 4,
    "Bog Factor": 2,
    "Distance": 13,
    "Duration": "6-8 hrs",
    "Latitude": 56.5556,
    "Longitude": -5.2413
  },
  {
    "Name": "Beinn Tarsuinn",
    "Region": "Ullapool",
    "Altitude": 937,
    "Difficulty": 5,
    "Bog Factor": 4,
    "Distance": 29,
    "Duration": "12-18 hrs",
    "Latitude": 57.7768,
    "Longitude": -5.2545
  },
  {
    "Name": "Beinn Teallach",
    "Region": "Fort William",
    "Altitude": 915,
    "Difficulty": 4,
    "Bog Factor": 4,
    "Distance": 16,
    "Duration": "6-8 hrs",
    "Latitude": 56.8951,
    "Longitude": -4.6656
  },
  {
    "Name": "Beinn Tulaichean",
    "Region": "Loch Lomond",
    "Altitude": 946,
    "Difficulty": 4,
    "Bog Factor": 3,
    "Distance": 12.5,
    "Duration": "6-7 hrs",
    "Latitude": 56.333,
    "Longitude": -4.5157
  },
  {
    "Name": "Beinn Udlamain",
    "Region": "Cairngorms",
    "Altitude": 1010,
    "Difficulty": 4,
    "Bog Factor": 3,
    "Distance": 15.75,
    "Duration": "6-7 hrs",
    "Latitude": 56.8515,
    "Longitude": -4.2444
  },
  {
    "Name": "Ben Alder",
    "Region": "Cairngorms",
    "Altitude": 1148,
    "Difficulty": 4,
    "Bog Factor": 3,
    "Distance": 17,
    "Duration": "7-8 hrs",
    "Latitude": 56.8535,
    "Longitude": -4.4238
  },
  {
    "Name": "Ben Avon",
    "Region": "Cairngorms",
    "Altitude": 1171,
    "Difficulty": 4,
    "Bog Factor": 2,
    "Distance": 33.5,
    "Duration": "8-10 hrs",
    "Latitude": 57.0057,
    "Longitude": -3.3381
  },
  {
    "Name": "Ben Challum",
    "Region": "Argyll",
    "Altitude": 1025,
    "Difficulty": 3,
    "Bog Factor": 4,
    "Distance": 11.5,
    "Duration": "5-7 hrs",
    "Latitude": 56.4168,
    "Longitude": -4.6669
  },
  {
    "Name": "Ben Chonzie",
    "Region": "Perthshire",
    "Altitude": 931,
    "Difficulty": 3,
    "Bog Factor": 2,
    "Distance": 12.5,
    "Duration": "4-5 hrs",
    "Latitude": 56.4209,
    "Longitude": -4.0394
  },
  {
    "Name": "Ben Cruachan",
    "Region": "Argyll",
    "Altitude": 1126,
    "Difficulty": 4,
    "Bog Factor": 2,
    "Distance": 13.75,
    "Duration": "8-9 hrs",
    "Latitude": 56.3937,
    "Longitude": -5.11198
  },
  {
    "Name": "Ben Hope",
    "Region": "Sutherland",
    "Altitude": 927,
    "Difficulty": 3,
    "Bog Factor": 2,
    "Distance": 7.5,
    "Duration": "4-6 hrs",
    "Latitude": 58.3904,
    "Longitude": -4.6328
  },
  {
    "Name": "Ben Klibreck",
    "Region": "Sutherland",
    "Altitude": 961,
    "Difficulty": 4,
    "Bog Factor": 3,
    "Distance": 14.25,
    "Duration": "5-7 hrs",
    "Latitude": 58.2085,
    "Longitude": -4.4993
  },
  {
    "Name": "Ben Lawers",
    "Region": "Perthshire",
    "Altitude": 1214,
    "Difficulty": 3,
    "Bog Factor": 1,
    "Distance": 11,
    "Duration": "4-6 hrs",
    "Latitude": 56.511,
    "Longitude": -4.26287
  },
  {
    "Name": "Ben Lomond",
    "Region": "Loch Lomond",
    "Altitude": 974,
    "Difficulty": 3,
    "Bog Factor": 3,
    "Distance": 12,
    "Duration": "4.5-5.5 hrs",
    "Latitude": 56.1525,
    "Longitude": -4.6431
  },
  {
    "Name": "Ben Lui",
    "Region": "Argyll",
    "Altitude": 1130,
    "Difficulty": 4,
    "Bog Factor": 3,
    "Distance": 10,
    "Duration": "5-7 hrs",
    "Latitude": 56.4099,
    "Longitude": -4.85552
  },
  {
    "Name": "Ben Macdui",
    "Region": "Cairngorms",
    "Altitude": 1309,
    "Difficulty": 4,
    "Bog Factor": 2,
    "Distance": 29,
    "Duration": "9-11 hrs",
    "Latitude": 56.99,
    "Longitude": -3.5443
  },
  {
    "Name": "Ben More",
    "Region": "Loch Lomond",
    "Altitude": 1174,
    "Difficulty": 4,
    "Bog Factor": 3,
    "Distance": 12,
    "Duration": "6-8 hrs",
    "Latitude": 56.4028,
    "Longitude": -4.5612
  },
  {
    "Name": "Ben More (Mull)",
    "Region": "Isle of Mull",
    "Altitude": 966,
    "Difficulty": 3,
    "Bog Factor": 3,
    "Distance": 9.25,
    "Duration": "5-6.5 hrs",
    "Latitude": 56.4492,
    "Longitude": -6.0679
  },
  {
    "Name": "Ben More Assynt",
    "Region": "Ullapool",
    "Altitude": 998,
    "Difficulty": 4,
    "Bog Factor": 3,
    "Distance": 17.25,
    "Duration": "8.5-10 hrs",
    "Latitude": 58.1487,
    "Longitude": -4.9734
  },
  {
    "Name": "Ben Nevis",
    "Region": "Fort William",
    "Altitude": 1345,
    "Difficulty": 3,
    "Bog Factor": 1,
    "Distance": 17,
    "Duration": "7-9 hrs",
    "Latitude": 56.8108,
    "Longitude": -5.0771
  },
  {
    "Name": "Ben Oss",
    "Region": "Argyll",
    "Altitude": 1029,
    "Difficulty": 4,
    "Bog Factor": 4,
    "Distance": 17,
    "Duration": "7-8 hrs",
    "Latitude": 56.425,
    "Longitude": -4.6868
  },
  {
    "Name": "Ben Starav",
    "Region": "Fort William",
    "Altitude": 1078,
    "Difficulty": 4,
    "Bog Factor": 3,
    "Distance": 16,
    "Duration": "8-9 hrs",
    "Latitude": 56.5765,
    "Longitude": -5.0352
  },
  {
    "Name": "Ben Vane",
    "Region": "Loch Lomond",
    "Altitude": 915,
    "Difficulty": 4,
    "Bog Factor": 3,
    "Distance": 11,
    "Duration": "4.5-6.5 hrs",
    "Latitude": 56.2516,
    "Longitude": -4.70884
  },
  {
    "Name": "Ben Vorlich (Loch Earn)",
    "Region": "Perthshire",
    "Altitude": 985,
    "Difficulty": 4,
    "Bog Factor": 3,
    "Distance": 14.5,
    "Duration": "6-7 hrs",
    "Latitude": 56.3813,
    "Longitude": -4.2158
  },
  {
    "Name": "Ben Vorlich (Loch Lomond)",
    "Region": "Loch Lomond",
    "Altitude": 943,
    "Difficulty": 4,
    "Bog Factor": 2,
    "Distance": 13.5,
    "Duration": "5-6.5 hrs",
    "Latitude": 56.2516,
    "Longitude": -4.70884
  },
  {
    "Name": "Ben Wyvis",
    "Region": "Loch Ness",
    "Altitude": 1046,
    "Difficulty": 3,
    "Bog Factor": 2,
    "Distance": 14,
    "Duration": "4.5-5.5 hrs",
    "Latitude": 57.6658,
    "Longitude": -4.6668
  },
  {
    "Name": "Bidean nam Bian",
    "Region": "Fort William",
    "Altitude": 1150,
    "Difficulty": 4,
    "Bog Factor": 1,
    "Distance": 11,
    "Duration": "7-9 hrs",
    "Latitude": 56.6677,
    "Longitude": -4.9865
  },
  {
    "Name": "Bidein a' Choire Sheasgaich",
    "Region": "Torridon",
    "Altitude": 945,
    "Difficulty": 4,
    "Bog Factor": 3,
    "Distance": 38,
    "Duration": "16 hrs",
    "Latitude": 57.3915,
    "Longitude": -5.45534
  },
  {
    "Name": "Bidein a' Ghlas Thuill (An Teallach)",
    "Region": "Ullapool",
    "Altitude": 1062,
    "Difficulty": 5,
    "Bog Factor": 3,
    "Distance": 20,
    "Duration": "9-10 hrs",
    "Latitude": 57.84,
    "Longitude": -5.215
  },
  {
    "Name": "Binnein Beag",
    "Region": "Fort William",
    "Altitude": 943,
    "Difficulty": 4,
    "Bog Factor": 3,
    "Distance": 20,
    "Duration": "9-11 hrs",
    "Latitude": 56.7168,
    "Longitude": -4.9628
  },
  {
    "Name": "Binnein Mòr",
    "Region": "Fort William",
    "Altitude": 1130,
    "Difficulty": 4,
    "Bog Factor": 2,
    "Distance": 14,
    "Duration": "7-9 hrs",
    "Latitude": 56.7169,
    "Longitude": -4.96308
  },
  {
    "Name": "Blà Bheinn",
    "Region": "Isle of Skye",
    "Altitude": 928,
    "Difficulty": 4,
    "Bog Factor": 1,
    "Distance": 8,
    "Duration": "5-6 hrs",
    "Latitude": 57.2203,
    "Longitude": -6.0429
  },
  {
    "Name": "Braeriach",
    "Region": "Cairngorms",
    "Altitude": 1296,
    "Difficulty": 4,
    "Bog Factor": 2,
    "Distance": 26,
    "Duration": "8-10 hrs",
    "Latitude": 57.1561,
    "Longitude": -3.7943
  },
  {
    "Name": "Bràigh Coire Chruinn-bhalgain",
    "Region": "Perthshire",
    "Altitude": 1070,
    "Difficulty": 4,
    "Bog Factor": 2,
    "Distance": 22,
    "Duration": "8-10 hrs",
    "Latitude": 56.7826,
    "Longitude": -3.7926
  },
  {
    "Name": "Broad Cairn",
    "Region": "Cairngorms",
    "Altitude": 998,
    "Difficulty": 4,
    "Bog Factor": 2,
    "Distance": 29,
    "Duration": "9-11 hrs",
    "Latitude": 56.9525,
    "Longitude": -3.1364
  },
  {
    "Name": "Bruach na Frìthe",
    "Region": "Isle of Skye",
    "Altitude": 958,
    "Difficulty": 4,
    "Bog Factor": 3,
    "Distance": 13.75,
    "Duration": "5-7 hrs",
    "Latitude": 57.2888,
    "Longitude": -6.1842
  },
  {
    "Name": "Bynack More",
    "Region": "Cairngorms",
    "Altitude": 1090,
    "Difficulty": 4,
    "Bog Factor": 2,
    "Distance": 22.5,
    "Duration": "6.5-7.5 hrs",
    "Latitude": 57.1591,
    "Longitude": -3.6816
  },
  {
    "Name": "Cairn Bannoch",
    "Region": "Cairngorms",
    "Altitude": 1012,
    "Difficulty": 4,
    "Bog Factor": 2,
    "Distance": 29,
    "Duration": "9-11 hrs",
    "Latitude": 56.9525,
    "Longitude": -3.1364
  },
  {
    "Name": "Cairn Gorm",
    "Region": "Cairngorms",
    "Altitude": 1245,
    "Difficulty": 4,
    "Bog Factor": 2,
    "Distance": 11,
    "Duration": "5-6 hrs",
    "Latitude": 57.134,
    "Longitude": -3.6712
  },
  {
    "Name": "Cairn of Claise",
    "Region": "Cairngorms",
    "Altitude": 1064,
    "Difficulty": 4,
    "Bog Factor": 3,
    "Distance": 19.25,
    "Duration": "6.5-7.5 hrs",
    "Latitude": 56.9033,
    "Longitude": -3.4008
  },
  {
    "Name": "Cairn Toul",
    "Region": "Cairngorms",
    "Altitude": 1291,
    "Difficulty": 5,
    "Bog Factor": 3,
    "Distance": 36,
    "Duration": "13 hrs",
    "Latitude": 57.1462,
    "Longitude": -3.6793
  },
  {
    "Name": "Càrn a' Chlamain",
    "Region": "Perthshire",
    "Altitude": 963,
    "Difficulty": 4,
    "Bog Factor": 2,
    "Distance": 26,
    "Duration": "7-9 hrs",
    "Latitude": 56.7745,
    "Longitude": -3.84325
  },
  {
    "Name": "Càrn a' Choire Bhòidheach",
    "Region": "Cairngorms",
    "Altitude": 1118,
    "Difficulty": 4,
    "Bog Factor": 2,
    "Distance": 29,
    "Duration": "9-11 hrs",
    "Latitude": 56.9525,
    "Longitude": -3.1364
  },
  {
    "Name": "Càrn a' Ghèoidh",
    "Region": "Cairngorms",
    "Altitude": 975,
    "Difficulty": 3,
    "Bog Factor": 3,
    "Distance": 13,
    "Duration": "5-6 hrs",
    "Latitude": 56.8868,
    "Longitude": -3.4149
  },
  {
    "Name": "Càrn a' Mhàim",
    "Region": "Cairngorms",
    "Altitude": 1037,
    "Difficulty": 4,
    "Bog Factor": 2,
    "Distance": 22.5,
    "Duration": "6-7 hrs",
    "Latitude": 56.99,
    "Longitude": -3.5443
  },
  {
    "Name": "Càrn an Fhìdhleir (Càrn Ealar)",
    "Region": "Cairngorms",
    "Altitude": 994,
    "Difficulty": 4,
    "Bog Factor": 3,
    "Distance": 42,
    "Duration": "11-12 hrs",
    "Latitude": 56.9894,
    "Longitude": -3.5435
  },
  {
    "Name": "Càrn an Rìgh",
    "Region": "Perthshire",
    "Altitude": 1029,
    "Difficulty": 4,
    "Bog Factor": 3,
    "Distance": 27,
    "Duration": "8-10 hrs",
    "Latitude": 56.8141,
    "Longitude": -3.4672
  },
  {
    "Name": "Càrn an t-Sagairt Mòr",
    "Region": "Cairngorms",
    "Altitude": 1047,
    "Difficulty": 4,
    "Bog Factor": 2,
    "Distance": 29,
    "Duration": "9-11 hrs",
    "Latitude": 56.9525,
    "Longitude": -3.1364
  },
  {
    "Name": "Càrn an Tuirc",
    "Region": "Cairngorms",
    "Altitude": 1019,
    "Difficulty": 4,
    "Bog Factor": 3,
    "Distance": 19.25,
    "Duration": "6.5-7.5 hrs",
    "Latitude": 56.9033,
    "Longitude": -3.4008
  },
  {
    "Name": "Càrn Aosda",
    "Region": "Cairngorms",
    "Altitude": 917,
    "Difficulty": 3,
    "Bog Factor": 3,
    "Distance": 13,
    "Duration": "5-6 hrs",
    "Latitude": 56.8868,
    "Longitude": -3.4149
  },
  {
    "Name": "Càrn Bhac",
    "Region": "Cairngorms",
    "Altitude": 946,
    "Difficulty": 4,
    "Bog Factor": 3,
    "Distance": 32,
    "Duration": "9-10 hrs",
    "Latitude": 56.9851,
    "Longitude": -3.5003
  },
  {
    "Name": "Càrn Dearg (Corrour)",
    "Region": "Fort William",
    "Altitude": 941,
    "Difficulty": 4,
    "Bog Factor": 3,
    "Distance": 21.75,
    "Duration": "7-8 hrs",
    "Latitude": 56.7604,
    "Longitude": -4.6907
  },
  {
    "Name": "Càrn Dearg (Loch Pattack)",
    "Region": "Cairngorms",
    "Altitude": 1034,
    "Difficulty": 4,
    "Bog Factor": 3,
    "Distance": 18.5,
    "Duration": "8-9 hrs",
    "Latitude": 56.8535,
    "Longitude": -4.4238
  },
  {
    "Name": "Càrn Dearg (Monadhliath)",
    "Region": "Cairngorms",
    "Altitude": 945,
    "Difficulty": 4,
    "Bog Factor": 3,
    "Distance": 24.5,
    "Duration": "8-10 hrs",
    "Latitude": 57.0705,
    "Longitude": -4.1576
  },
  {
    "Name": "Càrn Eige",
    "Region": "Loch Ness",
    "Altitude": 1183,
    "Difficulty": 4,
    "Bog Factor": 3,
    "Distance": 28,
    "Duration": "10-13 hrs",
    "Latitude": 57.2734,
    "Longitude": -4.9618
  },
  {
    "Name": "Càrn Ghluasaid",
    "Region": "Kintail",
    "Altitude": 957,
    "Difficulty": 4,
    "Bog Factor": 3,
    "Distance": 17.5,
    "Duration": "7-8 hrs",
    "Latitude": 57.1461,
    "Longitude": -5.0682
  },
  {
    "Name": "Càrn Gorm",
    "Region": "Perthshire",
    "Altitude": 1029,
    "Difficulty": 4,
    "Bog Factor": 2,
    "Distance": 17.5,
    "Duration": "7-8 hrs",
    "Latitude": 56.6067,
    "Longitude": -4.17465
  },
  {
    "Name": "Càrn Liath (Beinn a' Ghlò)",
    "Region": "Perthshire",
    "Altitude": 975,
    "Difficulty": 4,
    "Bog Factor": 2,
    "Distance": 22,
    "Duration": "8-10 hrs",
    "Latitude": 56.7826,
    "Longitude": -3.7926
  },
  {
    "Name": "Càrn Liath (Creag Meagaidh)",
    "Region": "Fort William",
    "Altitude": 1006,
    "Difficulty": 4,
    "Bog Factor": 3,
    "Distance": 21,
    "Duration": "8-10 hrs",
    "Latitude": 56.9521,
    "Longitude": -4.49592
  },
  {
    "Name": "Càrn Mairg",
    "Region": "Perthshire",
    "Altitude": 1042,
    "Difficulty": 4,
    "Bog Factor": 2,
    "Distance": 17.5,
    "Duration": "7-8 hrs",
    "Latitude": 56.6067,
    "Longitude": -4.17465
  },
  {
    "Name": "Càrn Mòr Dearg",
    "Region": "Fort William",
    "Altitude": 1220,
    "Difficulty": 5,
    "Bog Factor": 3,
    "Distance": 17.5,
    "Duration": "10-11 hrs",
    "Latitude": 56.8419,
    "Longitude": -5.0432
  },
  {
    "Name": "Càrn na Caim",
    "Region": "Cairngorms",
    "Altitude": 941,
    "Difficulty": 4,
    "Bog Factor": 3,
    "Distance": 19,
    "Duration": "5-6 hrs",
    "Latitude": 56.9089,
    "Longitude": -4.2366
  },
  {
    "Name": "Càrn nan Gabhar",
    "Region": "Perthshire",
    "Altitude": 1121,
    "Difficulty": 4,
    "Bog Factor": 2,
    "Distance": 22,
    "Duration": "8-10 hrs",
    "Latitude": 56.7826,
    "Longitude": -3.7926
  },
  {
    "Name": "Càrn nan Gobhar (Loch Mullardoch)",
    "Region": "Loch Ness",
    "Altitude": 992,
    "Difficulty": 4,
    "Bog Factor": 4,
    "Distance": 29,
    "Duration": "11-14 hrs",
    "Latitude": 57.3399,
    "Longitude": -4.9615
  },
  {
    "Name": "Càrn nan Gobhar (Strathfarrar)",
    "Region": "Loch Ness",
    "Altitude": 992,
    "Difficulty": 4,
    "Bog Factor": 3,
    "Distance": 25,
    "Duration": "7-10 hrs",
    "Latitude": 57.4056,
    "Longitude": -4.8591
  },
  {
    "Name": "Càrn Sgulain",
    "Region": "Cairngorms",
    "Altitude": 920,
    "Difficulty": 4,
    "Bog Factor": 3,
    "Distance": 24.5,
    "Duration": "8-10 hrs",
    "Latitude": 57.0705,
    "Longitude": -4.1576
  },
  {
    "Name": "Chno Dearg",
    "Region": "Fort William",
    "Altitude": 1046,
    "Difficulty": 4,
    "Bog Factor": 4,
    "Distance": 13.5,
    "Duration": "6-7 hrs",
    "Latitude": 56.8655,
    "Longitude": -4.7085
  },
  {
    "Name": "Ciste Dhubh",
    "Region": "Kintail",
    "Altitude": 979,
    "Difficulty": 4,
    "Bog Factor": 3,
    "Distance": 12.5,
    "Duration": "5-7 hrs",
    "Latitude": 57.1596,
    "Longitude": -5.1647
  },
  {
    "Name": "Cona' Mheall",
    "Region": "Ullapool",
    "Altitude": 978,
    "Difficulty": 4,
    "Bog Factor": 2,
    "Distance": 27,
    "Duration": "9-11 hrs",
    "Latitude": 57.8198,
    "Longitude": -5.0625
  },
  {
    "Name": "Conival",
    "Region": "Ullapool",
    "Altitude": 987,
    "Difficulty": 4,
    "Bog Factor": 3,
    "Distance": 17.25,
    "Duration": "8.5-10 hrs",
    "Latitude": 58.1487,
    "Longitude": -4.9734
  },
  {
    "Name": "Creag a'Mhàim",
    "Region": "Kintail",
    "Altitude": 947,
    "Difficulty": 4,
    "Bog Factor": 2,
    "Distance": 26.75,
    "Duration": "9-11 hrs",
    "Latitude": 57.156,
    "Longitude": -5.17815
  },
  {
    "Name": "Creag Leacach",
    "Region": "Cairngorms",
    "Altitude": 987,
    "Difficulty": 4,
    "Bog Factor": 3,
    "Distance": 19.25,
    "Duration": "6.5-7.5 hrs",
    "Latitude": 56.9033,
    "Longitude": -3.4008
  },
  {
    "Name": "Creag Meagaidh",
    "Region": "Fort William",
    "Altitude": 1130,
    "Difficulty": 4,
    "Bog Factor": 3,
    "Distance": 21,
    "Duration": "8-10 hrs",
    "Latitude": 56.9521,
    "Longitude": -4.49592
  },
  {
    "Name": "Creag Mhòr (Glen Lochay)",
    "Region": "Perthshire",
    "Altitude": 1047,
    "Difficulty": 4,
    "Bog Factor": 4,
    "Distance": 25.75,
    "Duration": "9-11 hrs",
    "Latitude": 56.4991,
    "Longitude": -4.4759
  },
  {
    "Name": "Creag Mhòr (Meall na Aighean)",
    "Region": "Perthshire",
    "Altitude": 981,
    "Difficulty": 4,
    "Bog Factor": 2,
    "Distance": 17.5,
    "Duration": "7-8 hrs",
    "Latitude": 56.6067,
    "Longitude": -4.17465
  },
  {
    "Name": "Creag nan Dàmh",
    "Region": "Kintail",
    "Altitude": 918,
    "Difficulty": 4,
    "Bog Factor": 2,
    "Distance": 26.75,
    "Duration": "9-11 hrs",
    "Latitude": 57.156,
    "Longitude": -5.17815
  },
  {
    "Name": "Creag Pitridh",
    "Region": "Fort William",
    "Altitude": 924,
    "Difficulty": 4,
    "Bog Factor": 3,
    "Distance": 26,
    "Duration": "8-10 hrs",
    "Latitude": 56.9122,
    "Longitude": -4.57556
  },
  {
    "Name": "Creise",
    "Region": "Fort William",
    "Altitude": 1100,
    "Difficulty": 4,
    "Bog Factor": 3,
    "Distance": 10.5,
    "Duration": "5-7 hrs",
    "Latitude": 56.6324,
    "Longitude": -4.8279
  },
  {
    "Name": "Cruach Àrdrain",
    "Region": "Loch Lomond",
    "Altitude": 1046,
    "Difficulty": 4,
    "Bog Factor": 3,
    "Distance": 12.5,
    "Duration": "6-7 hrs",
    "Latitude": 56.333,
    "Longitude": -4.5157
  },
  {
    "Name": "Derry Cairngorm",
    "Region": "Cairngorms",
    "Altitude": 1155,
    "Difficulty": 4,
    "Bog Factor": 2,
    "Distance": 29,
    "Duration": "9-11 hrs",
    "Latitude": 56.99,
    "Longitude": -3.5443
  },
  {
    "Name": "Driesh",
    "Region": "Angus",
    "Altitude": 947,
    "Difficulty": 3,
    "Bog Factor": 3,
    "Distance": 14.5,
    "Duration": "4.5-5.5 hrs",
    "Latitude": 56.8704,
    "Longitude": -3.17584
  },
  {
    "Name": "Druim Shionnach",
    "Region": "Kintail",
    "Altitude": 987,
    "Difficulty": 4,
    "Bog Factor": 2,
    "Distance": 26.75,
    "Duration": "9-11 hrs",
    "Latitude": 57.156,
    "Longitude": -5.17815
  },
  {
    "Name": "Eididh nan Clach Geala",
    "Region": "Ullapool",
    "Altitude": 927,
    "Difficulty": 4,
    "Bog Factor": 2,
    "Distance": 27,
    "Duration": "9-11 hrs",
    "Latitude": 57.8198,
    "Longitude": -5.0625
  },
  {
    "Name": "Fionn Bheinn",
    "Region": "Torridon",
    "Altitude": 933,
    "Difficulty": 3,
    "Bog Factor": 4,
    "Distance": 12,
    "Duration": "5-6 hrs",
    "Latitude": 57.5793,
    "Longitude": -5.0734
  },
  {
    "Name": "Gairich",
    "Region": "Fort William",
    "Altitude": 919,
    "Difficulty": 4,
    "Bog Factor": 3,
    "Distance": 15.5,
    "Duration": "5-7 hrs",
    "Latitude": 57.0719,
    "Longitude": -5.1877
  },
  {
    "Name": "Garbh Chioch Mhòr",
    "Region": "Fort William",
    "Altitude": 1013,
    "Difficulty": 4,
    "Bog Factor": 4,
    "Distance": 26,
    "Duration": "10-12 hrs",
    "Latitude": 56.9719,
    "Longitude": -5.3123
  },
  {
    "Name": "Geal chàrn (Laggan)",
    "Region": "Fort William",
    "Altitude": 1049,
    "Difficulty": 4,
    "Bog Factor": 3,
    "Distance": 26,
    "Duration": "8-10 hrs",
    "Latitude": 56.9122,
    "Longitude": -4.57556
  },
  {
    "Name": "Geal Chàrn (Monadhliath)",
    "Region": "Cairngorms",
    "Altitude": 926,
    "Difficulty": 3,
    "Bog Factor": 4,
    "Distance": 12.5,
    "Duration": "5-6 hrs",
    "Latitude": 57.0199,
    "Longitude": -4.4359
  },
  {
    "Name": "Geal-chàrn (Alder)",
    "Region": "Cairngorms",
    "Altitude": 1132,
    "Difficulty": 4,
    "Bog Factor": 3,
    "Distance": 18.5,
    "Duration": "8-9 hrs",
    "Latitude": 56.8535,
    "Longitude": -4.4238
  },
  {
    "Name": "Geal-chàrn (Drumochter)",
    "Region": "Cairngorms",
    "Altitude": 917,
    "Difficulty": 4,
    "Bog Factor": 3,
    "Distance": 11.5,
    "Duration": "4-6 hrs",
    "Latitude": 56.8835,
    "Longitude": -4.2536
  },
  {
    "Name": "Glas Bheinn Mhòr",
    "Region": "Fort William",
    "Altitude": 997,
    "Difficulty": 4,
    "Bog Factor": 3,
    "Distance": 16,
    "Duration": "8-9 hrs",
    "Latitude": 56.5765,
    "Longitude": -5.0352
  },
  {
    "Name": "Glas Maol",
    "Region": "Cairngorms",
    "Altitude": 1068,
    "Difficulty": 4,
    "Bog Factor": 3,
    "Distance": 19.25,
    "Duration": "6.5-7.5 hrs",
    "Latitude": 56.9033,
    "Longitude": -3.4008
  },
  {
    "Name": "Glas Tulaichean",
    "Region": "Perthshire",
    "Altitude": 1051,
    "Difficulty": 4,
    "Bog Factor": 3,
    "Distance": 27,
    "Duration": "8-10 hrs",
    "Latitude": 56.8141,
    "Longitude": -3.4672
  },
  {
    "Name": "Gleouraich",
    "Region": "Fort William",
    "Altitude": 1035,
    "Difficulty": 4,
    "Bog Factor": 3,
    "Distance": 12,
    "Duration": "5-7 hrs",
    "Latitude": 57.0757,
    "Longitude": -5.2532
  },
  {
    "Name": "Gulvain",
    "Region": "Fort William",
    "Altitude": 987,
    "Difficulty": 4,
    "Bog Factor": 3,
    "Distance": 21,
    "Duration": "7-9 hrs",
    "Latitude": 56.8597,
    "Longitude": -5.349
  },
  {
    "Name": "Inaccessible Pinnacle",
    "Region": "Isle of Skye",
    "Altitude": 986,
    "Difficulty": 5,
    "Bog Factor": 2,
    "Distance": 8,
    "Duration": "6-8 hrs",
    "Latitude": 57.212,
    "Longitude": -6.2884
  },
  {
    "Name": "Ladhar Bheinn",
    "Region": "Fort William",
    "Altitude": 1020,
    "Difficulty": 5,
    "Bog Factor": 2,
    "Distance": 22.5,
    "Duration": "9-12 hrs",
    "Latitude": 57.0386,
    "Longitude": -5.6854
  },
  {
    "Name": "Lochnagar",
    "Region": "Cairngorms",
    "Altitude": 1156,
    "Difficulty": 4,
    "Bog Factor": 2,
    "Distance": 29,
    "Duration": "9-11 hrs",
    "Latitude": 56.9525,
    "Longitude": -3.1364
  },
  {
    "Name": "Luinne Bheinn",
    "Region": "Fort William",
    "Altitude": 939,
    "Difficulty": 5,
    "Bog Factor": 3,
    "Distance": 27,
    "Duration": "11-13 hrs",
    "Latitude": 57.0386,
    "Longitude": -5.6854
  },
  {
    "Name": "Lurg Mhòr",
    "Region": "Torridon",
    "Altitude": 986,
    "Difficulty": 4,
    "Bog Factor": 3,
    "Distance": 38,
    "Duration": "16 hrs",
    "Latitude": 57.3915,
    "Longitude": -5.45534
  },
  {
    "Name": "Màm Sodhail",
    "Region": "Loch Ness",
    "Altitude": 1181,
    "Difficulty": 4,
    "Bog Factor": 3,
    "Distance": 28,
    "Duration": "10-13 hrs",
    "Latitude": 57.2734,
    "Longitude": -4.9618
  },
  {
    "Name": "Maoile Lunndaidh",
    "Region": "Torridon",
    "Altitude": 1007,
    "Difficulty": 4,
    "Bog Factor": 4,
    "Distance": 26,
    "Duration": "8-11 hrs",
    "Latitude": 57.4914,
    "Longitude": -5.2722
  },
  {
    "Name": "Maol Chean-dearg",
    "Region": "Torridon",
    "Altitude": 933,
    "Difficulty": 4,
    "Bog Factor": 3,
    "Distance": 14,
    "Duration": "5-7 hrs",
    "Latitude": 57.4498,
    "Longitude": -5.40744
  },
  {
    "Name": "Maol chinn-dearg",
    "Region": "Kintail",
    "Altitude": 981,
    "Difficulty": 4,
    "Bog Factor": 2,
    "Distance": 26.75,
    "Duration": "9-11 hrs",
    "Latitude": 57.156,
    "Longitude": -5.17815
  },
  {
    "Name": "Mayar",
    "Region": "Angus",
    "Altitude": 928,
    "Difficulty": 3,
    "Bog Factor": 3,
    "Distance": 14.5,
    "Duration": "4.5-5.5 hrs",
    "Latitude": 56.8704,
    "Longitude": -3.17584
  },
  {
    "Name": "Meall a' Bhùiridh",
    "Region": "Fort William",
    "Altitude": 1108,
    "Difficulty": 4,
    "Bog Factor": 3,
    "Distance": 10.5,
    "Duration": "5-7 hrs",
    "Latitude": 56.6324,
    "Longitude": -4.8279
  },
  {
    "Name": "Meall a' Choire Lèith",
    "Region": "Perthshire",
    "Altitude": 926,
    "Difficulty": 4,
    "Bog Factor": 4,
    "Distance": 9.5,
    "Duration": "5-6 hrs",
    "Latitude": 56.5453,
    "Longitude": -4.28936
  },
  {
    "Name": "Meall a' Chrasgaidh",
    "Region": "Ullapool",
    "Altitude": 934,
    "Difficulty": 4,
    "Bog Factor": 4,
    "Distance": 18,
    "Duration": "7-8 hrs",
    "Latitude": 57.7373,
    "Longitude": -5.09
  },
  {
    "Name": "Meall Buidhe (Glen Lyon)",
    "Region": "Perthshire",
    "Altitude": 932,
    "Difficulty": 3,
    "Bog Factor": 3,
    "Distance": 8.5,
    "Duration": "2.5-3.5 hrs",
    "Latitude": 56.5858,
    "Longitude": -4.42486
  },
  {
    "Name": "Meall Buidhe (Knoydart)",
    "Region": "Fort William",
    "Altitude": 946,
    "Difficulty": 5,
    "Bog Factor": 3,
    "Distance": 27,
    "Duration": "11-13 hrs",
    "Latitude": 57.0386,
    "Longitude": -5.6854
  },
  {
    "Name": "Meall Chuaich",
    "Region": "Cairngorms",
    "Altitude": 951,
    "Difficulty": 3,
    "Bog Factor": 2,
    "Distance": 14,
    "Duration": "4-5 hrs",
    "Latitude": 56.9512,
    "Longitude": -4.2148
  },
  {
    "Name": "Meall Corranaich",
    "Region": "Perthshire",
    "Altitude": 1069,
    "Difficulty": 4,
    "Bog Factor": 4,
    "Distance": 9.5,
    "Duration": "5-6 hrs",
    "Latitude": 56.5453,
    "Longitude": -4.28936
  },
  {
    "Name": "Meall Dearg (Aonach Eagach)",
    "Region": "Fort William",
    "Altitude": 953,
    "Difficulty": 5,
    "Bog Factor": 3,
    "Distance": 9.5,
    "Duration": "8-9 hrs",
    "Latitude": 56.6666,
    "Longitude": -4.9824
  },
  {
    "Name": "Meall Garbh (Ben Lawers)",
    "Region": "Perthshire",
    "Altitude": 1118,
    "Difficulty": 4,
    "Bog Factor": 3,
    "Distance": 16.5,
    "Duration": "7-8 hrs",
    "Latitude": 56.5295,
    "Longitude": -4.15186
  },
  {
    "Name": "Meall Garbh (Càrn Mairg)",
    "Region": "Perthshire",
    "Altitude": 968,
    "Difficulty": 4,
    "Bog Factor": 2,
    "Distance": 17.5,
    "Duration": "7-8 hrs",
    "Latitude": 56.6067,
    "Longitude": -4.17465
  },
  {
    "Name": "Meall Ghaordaidh",
    "Region": "Perthshire",
    "Altitude": 1039,
    "Difficulty": 3,
    "Bog Factor": 3,
    "Distance": 9.5,
    "Duration": "4-6 hrs",
    "Latitude": 56.4961,
    "Longitude": -4.39556
  },
  {
    "Name": "Meall Glas",
    "Region": "Loch Lomond",
    "Altitude": 959,
    "Difficulty": 4,
    "Bog Factor": 4,
    "Distance": 15.5,
    "Duration": "7-9 hrs",
    "Latitude": 56.4148,
    "Longitude": -4.5172
  },
  {
    "Name": "Meall Gorm",
    "Region": "Ullapool",
    "Altitude": 949,
    "Difficulty": 4,
    "Bog Factor": 4,
    "Distance": 24.75,
    "Duration": "9-11 hrs",
    "Latitude": 57.7248,
    "Longitude": -4.8943
  },
  {
    "Name": "Meall Greigh",
    "Region": "Perthshire",
    "Altitude": 1001,
    "Difficulty": 4,
    "Bog Factor": 3,
    "Distance": 16.5,
    "Duration": "7-8 hrs",
    "Latitude": 56.5295,
    "Longitude": -4.15186
  },
  {
    "Name": "Meall na Teanga",
    "Region": "Fort William",
    "Altitude": 918,
    "Difficulty": 4,
    "Bog Factor": 2,
    "Distance": 19,
    "Duration": "7-9 hrs",
    "Latitude": 57.0213,
    "Longitude": -4.83917
  },
  {
    "Name": "Meall nan Ceapraichean",
    "Region": "Ullapool",
    "Altitude": 977,
    "Difficulty": 4,
    "Bog Factor": 2,
    "Distance": 27,
    "Duration": "9-11 hrs",
    "Latitude": 57.8198,
    "Longitude": -5.0625
  },
  {
    "Name": "Meall nan Eun",
    "Region": "Fort William",
    "Altitude": 928,
    "Difficulty": 4,
    "Bog Factor": 4,
    "Distance": 18,
    "Duration": "7-9 hrs",
    "Latitude": 56.5765,
    "Longitude": -5.0352
  },
  {
    "Name": "Meall nan Tarmachan",
    "Region": "Perthshire",
    "Altitude": 1044,
    "Difficulty": 4,
    "Bog Factor": 3,
    "Distance": 13,
    "Duration": "5-7 hrs",
    "Latitude": 56.5108,
    "Longitude": -4.2628
  },
  {
    "Name": "Monadh Mòr",
    "Region": "Cairngorms",
    "Altitude": 1113,
    "Difficulty": 4,
    "Bog Factor": 3,
    "Distance": 29,
    "Duration": "9-11 hrs",
    "Latitude": 57.0631,
    "Longitude": -3.897
  },
  {
    "Name": "Moruisg",
    "Region": "Torridon",
    "Altitude": 928,
    "Difficulty": 4,
    "Bog Factor": 4,
    "Distance": 12,
    "Duration": "6-7 hrs",
    "Latitude": 57.5176,
    "Longitude": -5.20773
  },
  {
    "Name": "Mount Keen",
    "Region": "Angus",
    "Altitude": 939,
    "Difficulty": 3,
    "Bog Factor": 2,
    "Distance": 17.5,
    "Duration": "5-7 hrs",
    "Latitude": 56.9115,
    "Longitude": -2.91052
  },
  {
    "Name": "Mullach an Rathain (Liathach)",
    "Region": "Torridon",
    "Altitude": 1023,
    "Difficulty": 5,
    "Bog Factor": 2,
    "Distance": 11.5,
    "Duration": "8-10 hrs",
    "Latitude": 57.5527,
    "Longitude": -5.4516
  },
  {
    "Name": "Mullach Clach a' Bhlàir",
    "Region": "Cairngorms",
    "Altitude": 1019,
    "Difficulty": 4,
    "Bog Factor": 2,
    "Distance": 22.5,
    "Duration": "7-8 hrs",
    "Latitude": 57.0631,
    "Longitude": -3.897
  },
  {
    "Name": "Mullach Coire Mhic Fhearchair",
    "Region": "Ullapool",
    "Altitude": 1019,
    "Difficulty": 5,
    "Bog Factor": 4,
    "Distance": 29,
    "Duration": "12-18 hrs",
    "Latitude": 57.7768,
    "Longitude": -5.2545
  },
  {
    "Name": "Mullach Fraoch-choire",
    "Region": "Kintail",
    "Altitude": 1102,
    "Difficulty": 4,
    "Bog Factor": 3,
    "Distance": 13,
    "Duration": "6-8 hrs",
    "Latitude": 57.1596,
    "Longitude": -5.1647
  },
  {
    "Name": "Mullach na Dheiragain",
    "Region": "Loch Ness",
    "Altitude": 982,
    "Difficulty": 4,
    "Bog Factor": 3,
    "Distance": 20,
    "Duration": "9-11 hrs",
    "Latitude": 57.2322,
    "Longitude": -5.1834
  },
  {
    "Name": "Mullach nan Coirean",
    "Region": "Fort William",
    "Altitude": 939,
    "Difficulty": 4,
    "Bog Factor": 3,
    "Distance": 13,
    "Duration": "6-8 hrs",
    "Latitude": 56.7695,
    "Longitude": -5.0372
  },
  {
    "Name": "Na Gruagaichean",
    "Region": "Fort William",
    "Altitude": 1056,
    "Difficulty": 4,
    "Bog Factor": 2,
    "Distance": 14,
    "Duration": "7-9 hrs",
    "Latitude": 56.7169,
    "Longitude": -4.96308
  },
  {
    "Name": "Ruadh Stac Mòr",
    "Region": "Ullapool",
    "Altitude": 918,
    "Difficulty": 5,
    "Bog Factor": 4,
    "Distance": 29,
    "Duration": "12-18 hrs",
    "Latitude": 57.7768,
    "Longitude": -5.2545
  },
  {
    "Name": "Ruadh-stac Mòr (Beinn Eighe)",
    "Region": "Torridon",
    "Altitude": 1010,
    "Difficulty": 4,
    "Bog Factor": 2,
    "Distance": 18,
    "Duration": "7-9 hrs",
    "Latitude": 57.5556,
    "Longitude": -5.4137
  },
  {
    "Name": "Sàil Chaorainn",
    "Region": "Kintail",
    "Altitude": 1002,
    "Difficulty": 4,
    "Bog Factor": 3,
    "Distance": 17.5,
    "Duration": "7-8 hrs",
    "Latitude": 57.1461,
    "Longitude": -5.0682
  },
  {
    "Name": "Sàileag",
    "Region": "Kintail",
    "Altitude": 956,
    "Difficulty": 4,
    "Bog Factor": 2,
    "Distance": 10,
    "Duration": "6-8 hrs",
    "Latitude": 57.1696,
    "Longitude": -5.2945
  },
  {
    "Name": "Schiehallion",
    "Region": "Perthshire",
    "Altitude": 1083,
    "Difficulty": 3,
    "Bog Factor": 1,
    "Distance": 10,
    "Duration": "4-6 hrs",
    "Latitude": 56.6758,
    "Longitude": -4.03603
  },
  {
    "Name": "Seana Bhràigh",
    "Region": "Ullapool",
    "Altitude": 926,
    "Difficulty": 4,
    "Bog Factor": 3,
    "Distance": 27,
    "Duration": "9-10 hrs",
    "Latitude": 57.8203,
    "Longitude": -5.0626
  },
  {
    "Name": "Sgàirneach Mhòr",
    "Region": "Cairngorms",
    "Altitude": 991,
    "Difficulty": 4,
    "Bog Factor": 3,
    "Distance": 15.75,
    "Duration": "6-7 hrs",
    "Latitude": 56.8515,
    "Longitude": -4.2444
  },
  {
    "Name": "Sgiath Chùil",
    "Region": "Loch Lomond",
    "Altitude": 921,
    "Difficulty": 4,
    "Bog Factor": 4,
    "Distance": 15.5,
    "Duration": "7-9 hrs",
    "Latitude": 56.4148,
    "Longitude": -4.5172
  },
  {
    "Name": "Sgòr an Lochain Uaine",
    "Region": "Cairngorms",
    "Altitude": 1258,
    "Difficulty": 5,
    "Bog Factor": 3,
    "Distance": 36,
    "Duration": "13 hrs",
    "Latitude": 57.1462,
    "Longitude": -3.6793
  },
  {
    "Name": "Sgòr Gaibhre",
    "Region": "Fort William",
    "Altitude": 955,
    "Difficulty": 4,
    "Bog Factor": 3,
    "Distance": 21.75,
    "Duration": "7-8 hrs",
    "Latitude": 56.7604,
    "Longitude": -4.6907
  },
  {
    "Name": "Sgòr Gaoith",
    "Region": "Cairngorms",
    "Altitude": 1118,
    "Difficulty": 4,
    "Bog Factor": 2,
    "Distance": 14,
    "Duration": "6-7 hrs",
    "Latitude": 57.0879,
    "Longitude": -3.8951
  },
  {
    "Name": "Sgòr na h-Ulaidh",
    "Region": "Fort William",
    "Altitude": 994,
    "Difficulty": 4,
    "Bog Factor": 3,
    "Distance": 16,
    "Duration": "7-9 hrs",
    "Latitude": 56.6611,
    "Longitude": -5.06878
  },
  {
    "Name": "Sgòrr Dhearg (Beinn a' Bheithir)",
    "Region": "Fort William",
    "Altitude": 1024,
    "Difficulty": 4,
    "Bog Factor": 3,
    "Distance": 15.5,
    "Duration": "7-9 hrs",
    "Latitude": 56.6783,
    "Longitude": -5.12981
  },
  {
    "Name": "Sgòrr Dhònuill (Beinn a' Bheithir)",
    "Region": "Fort William",
    "Altitude": 1001,
    "Difficulty": 4,
    "Bog Factor": 3,
    "Distance": 15.5,
    "Duration": "7-9 hrs",
    "Latitude": 56.6783,
    "Longitude": -5.12981
  },
  {
    "Name": "Sgòrr nam Fiannaidh (Aonach Eagach)",
    "Region": "Fort William",
    "Altitude": 967,
    "Difficulty": 5,
    "Bog Factor": 3,
    "Distance": 9.5,
    "Duration": "8-9 hrs",
    "Latitude": 56.6666,
    "Longitude": -4.9824
  },
  {
    "Name": "Sgòrr Ruadh",
    "Region": "Torridon",
    "Altitude": 962,
    "Difficulty": 4,
    "Bog Factor": 2,
    "Distance": 16,
    "Duration": "6.5-7 hrs",
    "Latitude": 57.4818,
    "Longitude": -5.3292
  },
  {
    "Name": "Sgùrr a' Bhealaich Dheirg",
    "Region": "Kintail",
    "Altitude": 1036,
    "Difficulty": 4,
    "Bog Factor": 2,
    "Distance": 10,
    "Duration": "6-8 hrs",
    "Latitude": 57.1696,
    "Longitude": -5.2945
  },
  {
    "Name": "Sgùrr a' Chaorachain",
    "Region": "Torridon",
    "Altitude": 1053,
    "Difficulty": 4,
    "Bog Factor": 3,
    "Distance": 20.5,
    "Duration": "7-8 hrs",
    "Latitude": 57.4913,
    "Longitude": -5.27236
  },
  {
    "Name": "Sgùrr a' Choire Ghlais",
    "Region": "Loch Ness",
    "Altitude": 1083,
    "Difficulty": 4,
    "Bog Factor": 3,
    "Distance": 25,
    "Duration": "7-10 hrs",
    "Latitude": 57.4056,
    "Longitude": -4.8591
  },
  {
    "Name": "Sgùrr a' Ghreadaidh",
    "Region": "Isle of Skye",
    "Altitude": 973,
    "Difficulty": 5,
    "Bog Factor": 3,
    "Distance": 9.5,
    "Duration": "6-8 hrs",
    "Latitude": 57.2198,
    "Longitude": -6.2929
  },
  {
    "Name": "Sgùrr a' Mhadaidh",
    "Region": "Isle of Skye",
    "Altitude": 918,
    "Difficulty": 5,
    "Bog Factor": 3,
    "Distance": 9.5,
    "Duration": "6-8 hrs",
    "Latitude": 57.2198,
    "Longitude": -6.2929
  },
  {
    "Name": "Sgùrr a' Mhàim",
    "Region": "Fort William",
    "Altitude": 1099,
    "Difficulty": 5,
    "Bog Factor": 2,
    "Distance": 16,
    "Duration": "9-12 hrs",
    "Latitude": 56.7777,
    "Longitude": -5.00034
  },
  {
    "Name": "Sgùrr a' Mhaoraich",
    "Region": "Fort William",
    "Altitude": 1027,
    "Difficulty": 4,
    "Bog Factor": 3,
    "Distance": 14,
    "Duration": "5-7 hrs",
    "Latitude": 57.0848,
    "Longitude": -5.2781
  },
  {
    "Name": "Sgùrr Alasdair",
    "Region": "Isle of Skye",
    "Altitude": 992,
    "Difficulty": 5,
    "Bog Factor": 2,
    "Distance": 9.5,
    "Duration": "5-6 hrs",
    "Latitude": 57.203,
    "Longitude": -6.2914
  },
  {
    "Name": "Sgùrr an Doire Leathain",
    "Region": "Kintail",
    "Altitude": 1010,
    "Difficulty": 4,
    "Bog Factor": 2,
    "Distance": 26.75,
    "Duration": "9-11 hrs",
    "Latitude": 57.156,
    "Longitude": -5.17815
  },
  {
    "Name": "Sgùrr an Lochain",
    "Region": "Kintail",
    "Altitude": 1004,
    "Difficulty": 4,
    "Bog Factor": 2,
    "Distance": 26.75,
    "Duration": "9-11 hrs",
    "Latitude": 57.156,
    "Longitude": -5.17815
  },
  {
    "Name": "Sgùrr Bàn",
    "Region": "Ullapool",
    "Altitude": 989,
    "Difficulty": 5,
    "Bog Factor": 4,
    "Distance": 29,
    "Duration": "12-18 hrs",
    "Latitude": 57.7768,
    "Longitude": -5.2545
  },
  {
    "Name": "Sgùrr Breac",
    "Region": "Ullapool",
    "Altitude": 999,
    "Difficulty": 4,
    "Bog Factor": 4,
    "Distance": 16,
    "Duration": "6-8 hrs",
    "Latitude": 57.7374,
    "Longitude": -5.09
  },
  {
    "Name": "Sgùrr Chòinnich",
    "Region": "Torridon",
    "Altitude": 999,
    "Difficulty": 4,
    "Bog Factor": 3,
    "Distance": 20.5,
    "Duration": "7-8 hrs",
    "Latitude": 57.4913,
    "Longitude": -5.27236
  },
  {
    "Name": "Sgùrr Chòinnich Mòr",
    "Region": "Fort William",
    "Altitude": 1094,
    "Difficulty": 4,
    "Bog Factor": 3,
    "Distance": 21.5,
    "Duration": "9-10 hrs",
    "Latitude": 56.8727,
    "Longitude": -4.8682
  },
  {
    "Name": "Sgùrr Dubh Mòr",
    "Region": "Isle of Skye",
    "Altitude": 944,
    "Difficulty": 5,
    "Bog Factor": 2,
    "Distance": 15,
    "Duration": "7-11 hrs",
    "Latitude": 57.203,
    "Longitude": -6.2914
  },
  {
    "Name": "Sgùrr Èilde Mòr",
    "Region": "Fort William",
    "Altitude": 1010,
    "Difficulty": 4,
    "Bog Factor": 3,
    "Distance": 20,
    "Duration": "9-11 hrs",
    "Latitude": 56.7168,
    "Longitude": -4.9628
  },
  {
    "Name": "Sgùrr Fhuar-thuill",
    "Region": "Loch Ness",
    "Altitude": 1049,
    "Difficulty": 4,
    "Bog Factor": 3,
    "Distance": 25,
    "Duration": "7-10 hrs",
    "Latitude": 57.4056,
    "Longitude": -4.8591
  },
  {
    "Name": "Sgùrr Fhuaran",
    "Region": "Kintail",
    "Altitude": 1067,
    "Difficulty": 4,
    "Bog Factor": 2,
    "Distance": 15,
    "Duration": "8-10 hrs",
    "Latitude": 57.1694,
    "Longitude": -5.2945
  },
  {
    "Name": "Sgùrr Fiona (An Teallach)",
    "Region": "Ullapool",
    "Altitude": 1060,
    "Difficulty": 5,
    "Bog Factor": 3,
    "Distance": 20,
    "Duration": "9-10 hrs",
    "Latitude": 57.84,
    "Longitude": -5.215
  },
  {
    "Name": "Sgùrr Mhic Chòinnich",
    "Region": "Isle of Skye",
    "Altitude": 948,
    "Difficulty": 5,
    "Bog Factor": 1,
    "Distance": 11,
    "Duration": "5-6 hrs",
    "Latitude": 57.203,
    "Longitude": -6.2914
  },
  {
    "Name": "Sgùrr Mòr",
    "Region": "Ullapool",
    "Altitude": 1110,
    "Difficulty": 4,
    "Bog Factor": 4,
    "Distance": 24.75,
    "Duration": "9-11 hrs",
    "Latitude": 57.7248,
    "Longitude": -4.8943
  },
  {
    "Name": "Sgùrr Mòr (Beinn Alligin)",
    "Region": "Torridon",
    "Altitude": 986,
    "Difficulty": 5,
    "Bog Factor": 3,
    "Distance": 10.5,
    "Duration": "7-8 hrs",
    "Latitude": 57.5589,
    "Longitude": -5.56391
  },
  {
    "Name": "Sgùrr Mòr (Loch Quoich)",
    "Region": "Fort William",
    "Altitude": 1003,
    "Difficulty": 4,
    "Bog Factor": 4,
    "Distance": 24,
    "Duration": "9-11 hrs",
    "Latitude": 56.9719,
    "Longitude": -5.3123
  },
  {
    "Name": "Sgùrr na Banachdich",
    "Region": "Isle of Skye",
    "Altitude": 965,
    "Difficulty": 4,
    "Bog Factor": 2,
    "Distance": 7.5,
    "Duration": "5-7 hrs",
    "Latitude": 57.2198,
    "Longitude": -6.2929
  },
  {
    "Name": "Sgùrr na Càrnach",
    "Region": "Kintail",
    "Altitude": 1002,
    "Difficulty": 4,
    "Bog Factor": 2,
    "Distance": 15,
    "Duration": "8-10 hrs",
    "Latitude": 57.1694,
    "Longitude": -5.2945
  },
  {
    "Name": "Sgùrr na Cìche",
    "Region": "Fort William",
    "Altitude": 1040,
    "Difficulty": 4,
    "Bog Factor": 4,
    "Distance": 26,
    "Duration": "10-12 hrs",
    "Latitude": 56.9719,
    "Longitude": -5.3123
  },
  {
    "Name": "Sgùrr na Ciste Duibhe",
    "Region": "Kintail",
    "Altitude": 1027,
    "Difficulty": 4,
    "Bog Factor": 2,
    "Distance": 15,
    "Duration": "8-10 hrs",
    "Latitude": 57.1694,
    "Longitude": -5.2945
  },
  {
    "Name": "Sgùrr na Lapaich",
    "Region": "Loch Ness",
    "Altitude": 1150,
    "Difficulty": 4,
    "Bog Factor": 4,
    "Distance": 29,
    "Duration": "11-14 hrs",
    "Latitude": 57.3399,
    "Longitude": -4.9615
  },
  {
    "Name": "Sgùrr na Ruaidhe",
    "Region": "Loch Ness",
    "Altitude": 993,
    "Difficulty": 4,
    "Bog Factor": 3,
    "Distance": 25,
    "Duration": "7-10 hrs",
    "Latitude": 57.4056,
    "Longitude": -4.8591
  },
  {
    "Name": "Sgùrr na Sgìne",
    "Region": "Kintail",
    "Altitude": 945,
    "Difficulty": 5,
    "Bog Factor": 2,
    "Distance": 13,
    "Duration": "7-9 hrs",
    "Latitude": 57.1762,
    "Longitude": -5.36459
  },
  {
    "Name": "Sgùrr nan Ceathreamhnan",
    "Region": "Loch Ness",
    "Altitude": 1151,
    "Difficulty": 4,
    "Bog Factor": 3,
    "Distance": 20,
    "Duration": "9-11 hrs",
    "Latitude": 57.2322,
    "Longitude": -5.1834
  },
  {
    "Name": "Sgùrr nan Clach Geala",
    "Region": "Ullapool",
    "Altitude": 1093,
    "Difficulty": 4,
    "Bog Factor": 4,
    "Distance": 18,
    "Duration": "7-8 hrs",
    "Latitude": 57.7373,
    "Longitude": -5.09
  },
  {
    "Name": "Sgùrr nan Coireachan (Glen Dessary)",
    "Region": "Fort William",
    "Altitude": 953,
    "Difficulty": 4,
    "Bog Factor": 4,
    "Distance": 26,
    "Duration": "10-12 hrs",
    "Latitude": 56.9719,
    "Longitude": -5.3123
  },
  {
    "Name": "Sgùrr nan Coireachan (Glenfinnan)",
    "Region": "Fort William",
    "Altitude": 956,
    "Difficulty": 4,
    "Bog Factor": 3,
    "Distance": 23.5,
    "Duration": "9-12 hrs",
    "Latitude": 56.8711,
    "Longitude": -5.4364
  },
  {
    "Name": "Sgùrr nan Conbhairean",
    "Region": "Kintail",
    "Altitude": 1109,
    "Difficulty": 4,
    "Bog Factor": 3,
    "Distance": 17.5,
    "Duration": "7-8 hrs",
    "Latitude": 57.1461,
    "Longitude": -5.0682
  },
  {
    "Name": "Sgùrr nan Each",
    "Region": "Ullapool",
    "Altitude": 923,
    "Difficulty": 4,
    "Bog Factor": 4,
    "Distance": 18,
    "Duration": "7-8 hrs",
    "Latitude": 57.7373,
    "Longitude": -5.09
  },
  {
    "Name": "Sgùrr nan Eag",
    "Region": "Isle of Skye",
    "Altitude": 924,
    "Difficulty": 5,
    "Bog Factor": 2,
    "Distance": 15,
    "Duration": "7-11 hrs",
    "Latitude": 57.203,
    "Longitude": -6.2914
  },
  {
    "Name": "Sgùrr nan Gillean",
    "Region": "Isle of Skye",
    "Altitude": 964,
    "Difficulty": 5,
    "Bog Factor": 2,
    "Distance": 12,
    "Duration": "5-7 hrs",
    "Latitude": 57.2894,
    "Longitude": -6.176
  },
  {
    "Name": "Sgùrr Thuilm",
    "Region": "Fort William",
    "Altitude": 963,
    "Difficulty": 4,
    "Bog Factor": 3,
    "Distance": 23.5,
    "Duration": "9-12 hrs",
    "Latitude": 56.8711,
    "Longitude": -5.4364
  },
  {
    "Name": "Slioch",
    "Region": "Torridon",
    "Altitude": 981,
    "Difficulty": 4,
    "Bog Factor": 2,
    "Distance": 19,
    "Duration": "8-9 hrs",
    "Latitude": 57.6085,
    "Longitude": -5.2866
  },
  {
    "Name": "Spidean a' Choire Lèith (Liathach)",
    "Region": "Torridon",
    "Altitude": 1055,
    "Difficulty": 5,
    "Bog Factor": 2,
    "Distance": 11.5,
    "Duration": "8-10 hrs",
    "Latitude": 57.5527,
    "Longitude": -5.4516
  },
  {
    "Name": "Spidean Coire nan Clach (Beinn Eighe)",
    "Region": "Torridon",
    "Altitude": 993,
    "Difficulty": 4,
    "Bog Factor": 2,
    "Distance": 18,
    "Duration": "7-9 hrs",
    "Latitude": 57.5556,
    "Longitude": -5.4137
  },
  {
    "Name": "Spidean Mialach",
    "Region": "Fort William",
    "Altitude": 996,
    "Difficulty": 4,
    "Bog Factor": 3,
    "Distance": 12,
    "Duration": "5-7 hrs",
    "Latitude": 57.0757,
    "Longitude": -5.2532
  },
  {
    "Name": "Sròn a' Choire Ghairbh",
    "Region": "Fort William",
    "Altitude": 937,
    "Difficulty": 4,
    "Bog Factor": 2,
    "Distance": 19,
    "Duration": "7-9 hrs",
    "Latitude": 57.0213,
    "Longitude": -4.83917
  },
  {
    "Name": "Stob a' Choire Mheadhoin",
    "Region": "Fort William",
    "Altitude": 1106,
    "Difficulty": 4,
    "Bog Factor": 3,
    "Distance": 16.5,
    "Duration": "7-8 hrs",
    "Latitude": 56.8654,
    "Longitude": -4.7084
  },
  {
    "Name": "Stob a' Choire Odhair",
    "Region": "Argyll",
    "Altitude": 945,
    "Difficulty": 4,
    "Bog Factor": 3,
    "Distance": 16,
    "Duration": "8-9 hrs",
    "Latitude": 56.5372,
    "Longitude": -4.81407
  },
  {
    "Name": "Stob Bàn (Grey Corries)",
    "Region": "Fort William",
    "Altitude": 977,
    "Difficulty": 4,
    "Bog Factor": 3,
    "Distance": 18,
    "Duration": "6-7 hrs",
    "Latitude": 56.8683,
    "Longitude": -4.8637
  },
  {
    "Name": "Stob Bàn (Mamores)",
    "Region": "Fort William",
    "Altitude": 999,
    "Difficulty": 4,
    "Bog Factor": 3,
    "Distance": 13,
    "Duration": "6-8 hrs",
    "Latitude": 56.7695,
    "Longitude": -5.0372
  },
  {
    "Name": "Stob Binnein",
    "Region": "Loch Lomond",
    "Altitude": 1165,
    "Difficulty": 4,
    "Bog Factor": 3,
    "Distance": 12,
    "Duration": "6-8 hrs",
    "Latitude": 56.4028,
    "Longitude": -4.5612
  },
  {
    "Name": "Stob Choire Claurigh",
    "Region": "Fort William",
    "Altitude": 1177,
    "Difficulty": 4,
    "Bog Factor": 3,
    "Distance": 21.5,
    "Duration": "9-10 hrs",
    "Latitude": 56.8727,
    "Longitude": -4.8682
  },
  {
    "Name": "Stob Coir an Albannaich",
    "Region": "Fort William",
    "Altitude": 1044,
    "Difficulty": 4,
    "Bog Factor": 4,
    "Distance": 18,
    "Duration": "7-9 hrs",
    "Latitude": 56.5765,
    "Longitude": -5.0352
  },
  {
    "Name": "Stob Coire a' Chàirn",
    "Region": "Fort William",
    "Altitude": 981,
    "Difficulty": 5,
    "Bog Factor": 2,
    "Distance": 16,
    "Duration": "9-12 hrs",
    "Latitude": 56.7777,
    "Longitude": -5.00034
  },
  {
    "Name": "Stob Coire an Laoigh",
    "Region": "Fort William",
    "Altitude": 1116,
    "Difficulty": 4,
    "Bog Factor": 3,
    "Distance": 21.5,
    "Duration": "9-10 hrs",
    "Latitude": 56.8727,
    "Longitude": -4.8682
  },
  {
    "Name": "Stob Coire Easain",
    "Region": "Fort William",
    "Altitude": 1115,
    "Difficulty": 4,
    "Bog Factor": 3,
    "Distance": 16.5,
    "Duration": "7-8 hrs",
    "Latitude": 56.8654,
    "Longitude": -4.7084
  },
  {
    "Name": "Stob Coire Raineach (Buachaille Etive Beag)",
    "Region": "Fort William",
    "Altitude": 925,
    "Difficulty": 3,
    "Bog Factor": 2,
    "Distance": 8,
    "Duration": "5-6 hrs",
    "Latitude": 56.6627,
    "Longitude": -4.9582
  },
  {
    "Name": "Stob Coire Sgreamhach",
    "Region": "Fort William",
    "Altitude": 1072,
    "Difficulty": 4,
    "Bog Factor": 1,
    "Distance": 11,
    "Duration": "7-9 hrs",
    "Latitude": 56.6677,
    "Longitude": -4.9865
  },
  {
    "Name": "Stob Coire Sgriodain",
    "Region": "Fort William",
    "Altitude": 979,
    "Difficulty": 4,
    "Bog Factor": 4,
    "Distance": 13.5,
    "Duration": "6-7 hrs",
    "Latitude": 56.8655,
    "Longitude": -4.7085
  },
  {
    "Name": "Stob Daimh",
    "Region": "Argyll",
    "Altitude": 998,
    "Difficulty": 4,
    "Bog Factor": 2,
    "Distance": 13.75,
    "Duration": "8-9 hrs",
    "Latitude": 56.3937,
    "Longitude": -5.11198
  },
  {
    "Name": "Stob Dearg (Buachaille Etive Mòr)",
    "Region": "Fort William",
    "Altitude": 1021,
    "Difficulty": 4,
    "Bog Factor": 2,
    "Distance": 13,
    "Duration": "7-9 hrs",
    "Latitude": 56.6644,
    "Longitude": -4.9045
  },
  {
    "Name": "Stob Dubh (Buachaille Etive Beag)",
    "Region": "Fort William",
    "Altitude": 956,
    "Difficulty": 3,
    "Bog Factor": 2,
    "Distance": 8,
    "Duration": "5-6 hrs",
    "Latitude": 56.6627,
    "Longitude": -4.9582
  },
  {
    "Name": "Stob Ghabhar",
    "Region": "Argyll",
    "Altitude": 1090,
    "Difficulty": 4,
    "Bog Factor": 3,
    "Distance": 16,
    "Duration": "8-9 hrs",
    "Latitude": 56.5372,
    "Longitude": -4.81407
  },
  {
    "Name": "Stob na Bròige (Buachaille Etive Mòr)",
    "Region": "Fort William",
    "Altitude": 956,
    "Difficulty": 4,
    "Bog Factor": 2,
    "Distance": 13,
    "Duration": "7-9 hrs",
    "Latitude": 56.6644,
    "Longitude": -4.9045
  },
  {
    "Name": "Stob Poite Coire Àrdair",
    "Region": "Fort William",
    "Altitude": 1054,
    "Difficulty": 4,
    "Bog Factor": 3,
    "Distance": 21,
    "Duration": "8-10 hrs",
    "Latitude": 56.9521,
    "Longitude": -4.49592
  },
  {
    "Name": "Stùc a' Chròin",
    "Region": "Perthshire",
    "Altitude": 975,
    "Difficulty": 4,
    "Bog Factor": 3,
    "Distance": 14.5,
    "Duration": "6-7 hrs",
    "Latitude": 56.3813,
    "Longitude": -4.2158
  },
  {
    "Name": "Stùcd an Lochain",
    "Region": "Perthshire",
    "Altitude": 960,
    "Difficulty": 4,
    "Bog Factor": 3,
    "Distance": 8.5,
    "Duration": "3.5-4.5 hrs",
    "Latitude": 56.5856,
    "Longitude": -4.42609
  },
  {
    "Name": "The Cairnwell",
    "Region": "Cairngorms",
    "Altitude": 933,
    "Difficulty": 3,
    "Bog Factor": 3,
    "Distance": 13,
    "Duration": "5-6 hrs",
    "Latitude": 56.8868,
    "Longitude": -3.4149
  },
  {
    "Name": "The Devil's Point",
    "Region": "Cairngorms",
    "Altitude": 1004,
    "Difficulty": 5,
    "Bog Factor": 3,
    "Distance": 36,
    "Duration": "13 hrs",
    "Latitude": 57.1462,
    "Longitude": -3.6793
  },
  {
    "Name": "The Saddle",
    "Region": "Kintail",
    "Altitude": 1010,
    "Difficulty": 5,
    "Bog Factor": 2,
    "Distance": 13,
    "Duration": "7-9 hrs",
    "Latitude": 57.1762,
    "Longitude": -5.36459
  },
  {
    "Name": "Toll Creagach",
    "Region": "Loch Ness",
    "Altitude": 1054,
    "Difficulty": 4,
    "Bog Factor": 3,
    "Distance": 16.5,
    "Duration": "6-8 hrs",
    "Latitude": 57.2734,
    "Longitude": -4.9618
  },
  {
    "Name": "Tolmount",
    "Region": "Cairngorms",
    "Altitude": 958,
    "Difficulty": 4,
    "Bog Factor": 3,
    "Distance": 26.5,
    "Duration": "8-10 hrs",
    "Latitude": 56.9774,
    "Longitude": -3.39
  },
  {
    "Name": "Tom a' Chòinich",
    "Region": "Loch Ness",
    "Altitude": 1112,
    "Difficulty": 4,
    "Bog Factor": 3,
    "Distance": 16.5,
    "Duration": "6-8 hrs",
    "Latitude": 57.2734,
    "Longitude": -4.9618
  },
  {
    "Name": "Tom Buidhe",
    "Region": "Cairngorms",
    "Altitude": 957,
    "Difficulty": 4,
    "Bog Factor": 3,
    "Distance": 26.5,
    "Duration": "8-10 hrs",
    "Latitude": 56.9774,
    "Longitude": -3.39
  },
  {
    "Name": "Tom na Gruagaich (Beinn Alligin)",
    "Region": "Torridon",
    "Altitude": 922,
    "Difficulty": 5,
    "Bog Factor": 3,
    "Distance": 10.5,
    "Duration": "7-8 hrs",
    "Latitude": 57.5589,
    "Longitude": -5.56391
  }
 ]
